$NN)bÊÊrÊbÊÊrÊbR
5
$GNGSA,A,1,,,,,,,,,,,,,99.9,99.9,99.9,4*0F
$GNGSA,A,1,,,,,,,,,,,,,99.9,99.9,99.9,2*09
$GNGSA,A,1,,,,,,,,,,,,,99.9,99.9,99.9,3*08
$GNGSA,A,1,,,,,,,,,,,,,99.9,99.9,99.9,5*0E
$GPGSV,1,1,02,16,00,000,00,18,00,000,00,,,,,,,,,1*68
$POCNR,0,0,0,0,0,0,0,0,0,0*40
$GNRMC,,V,,,,,,,,,,N,V*37
$GNGGA,,,,,,0,00,99.9,,,,,,*6F
$GNRMC,,V,,,,,,,,,,N,V*37
$GNGGA,,,,,,0,00,99.9,,,,,,*6F
$GNRMC,,V,,,,,,,,,,N,V*37
$GNGGA,,,,,,0,00,99.9,,,,,,*6F
$GNRMC,,V,,,,,,,,,,N,V*37
$GNGGA,,,,,,0,00,99.9,,,,,,*6F
$GNRMC,,V,,,,,,,,,,N,V*37
$GNGGA,,,,,,0,00,99.9,,,,,,*6F
$GNRMC,,V,,,,,,,,,,N,V*37
$GNGGA,,,,,,0,00,99.9,,,,,,*6F
$GNRMC,,V,,,,,,,,,,N,V*37
$GNGGA,,,,,,0,00,99.9,,,,,,*6F
$GNRMC,,V,,,,,,,,,,N,V*37
$GNGGA,,,,,,0,00,99.9,,,,,,*6F
$GNRMC,,V,,,,,,,,,,N,V*37
$GNGGA,,,,,,0,00,99.9,,,,,,*6F
$GNRMC,,V,,,,,,,,,,N,V*37
$POCLK,0.000,0.000,0.000,0.000,0*47 
$BKÿ\00@\00\00\00Øy\00\00LÚ\00
$GNGGA,,,,,,0,00,99.9,,,,,,*6F
$GNGSA,A,1,,,,,,,,,,,,,99.9,99.9,99.9,1*0A
$GNGSA,A,1,,,,,,,,,,,,,99.9,99.9,99.9,4*0F
$GNGSA,A,1,,,,,,,,,,,,,99.9,99.9,99.9,2*09
$GNGSA,A,1,,,,,,,,,,,,,99.9,99.9,99.9,3*08
$GNGSA,A,1,,,,,,,,,,,,,99.9,99.9,99.9,5*0E
$GPGSV,1,1,02,16,00,000,27,18,00,000,29,,,,,,,,,1*66
$BDGSV,1,1,03,22,00,000,22,27,00,000,37,30,00,000,33,,,,,1*44
$GLGSV,1,1,03,72,00,000,32,76,00,000,37,77,00,000,32,,,,,1*4B
$GAGSV,1,1,01,03,00,000,32,,,,,,,,,,,,,7*40
$POCNR,0,0,0,0,0,0,0,0,0,0*40
$GNRMC,,V,,,,,,,,,,N,V*37
$GNGGA,,,,,,0,00,99.9,,,,,,*6F
$GNRMC,,V,,,,,,,,,,N,V*37
$GNGGA,,,,,,0,00,99.9,,,,,,*6F
$GNRMC,,V,,,,,,,,,,N,V*37
$GNGGA,,,,,,0,00,99.9,,,,,,*6F
$GNRMC,,V,,,,,,,,,,N,V*37
$GNGGA,,,,,,0,00,99.9,,,,,,*6F
$GNRMC,,V,,,,,,,,,,N,V*37
$GNGGA,,,,,,0,00,99.9,,,,,,*6F
$GNRMC,,V,,,,,,,,,,N,V*37
$GNGGA,,,,,,0,00,99.9,,,,,,*6F
$GNRMC,,V,,,,,,,,,,N,V*37
$GNGGA,,,,,,0,00,99.9,,,,,,*6F
$GNRMC,,V,,,,,,,,,,N,V*37
$GNGGA,,,,,,0,00,99.9,,,,,,*6F
$GNRMC,,V,,,,,,,,,,N,V*37
$GNGGA,,,,,,0,00,99.9,,,,,,*6F
$GNRMC,,V,,,,,,,,,,N,V*37
$POCLK,0.000,0.000,0.000,0.000,0*47
$
$GNGGA,,,,,,0,00,99.9,,,,,,*6F
$GNGSA,A,1,,,,,,,,,,,,,99.9,99.9,99.9,1*0A
$GNGSA,A,1,,,,,,,,,,,,,99.9,99.9,99.9,4*0F
$GNGSA,A,1,,,,,,,,,,,,,99.9,99.9,99.9,2*09
$GNGSA,A,1,,,,,,,,,,,,,99.9,99.9,99.9,3*08
$GNGSA,A,1,,,,,,,,,,,,,99.9,99.9,99.9,5*0E
$GPGSV,1,1,04,16,00,000,19,18,00,000,16,31,00,000,30,195,00,000,00,1*5D
$BDGSV,1,1,03,22,00,000,29,27,00,000,34,30,00,000,29,,,,,1*47
$GLGSV,1,1,03,72,00,000,22,76,00,000,13,77,00,000,21,,,,,1*4E
$GAGSV,1,1,01,03,00,000,27,,,,,,,,,,,,,7*44
$POCNR,0,0,0,0,0,0,0,0,0,0*40
$GNRMC,,V,,,,,,,,,,N,V*37
$GNGGA,,,,,,0,00,99.9,,,,,,*6F
$GNRMC,,V,,,,,,,,,,N,V*37
$GNGGA,,,,,,0,00,99.9,,,,,,*6F
$GNRMC,,V,,,,,,,,,,N,V*37
$GNGGA,,,,,,0,00,99.9,,,,,,*6F
$GNRMC,,V,,,,,,,,,,N,V*37
$GNGGA,,,,,,0,00,99.9,,,,,,*6F
$GNRMC,,V,,,,,,,,,,N,V*37
$GNGGA,,,,,,0,00,99.9,,,,,,*6F
$GNRMC,,V,,,,,,,,,,N,V*37
$GNGGA,,,,,,0,00,99.9,,,,,,*6F
$GNRMC,,V,,,,,,,,,,N,V*37
$GNGGA,,,,,,0,00,99.9,,,,,,*6F
$GNRMC,,V,,,,,,,,,,N,V*37
$GNGGA,,,,,,0,00,99.9,,,,,,*6F
$GNRMC,,V,,,,,,,,,,N,V*37
$GNGGA,,,,,,0,00,99.9,,,,,,*6F
$GNRMC,,V,,,,,,,,,,N,V*37
$POCLK,0.000,0.000,0.000,0.000,0*47
  
$
$GNGGA,,,,,,0,00,99.9,,,,,,*6F
$GNGSA,A,1,,,,,,,,,,,,,99.9,99.9,99.9,1*0A
$GNGSA,A,1,,,,,,,,,,,,,99.9,99.9,99.9,4*0F
$GNGSA,A,1,,,,,,,,,,,,,99.9,99.9,99.9,2*09
$GNGSA,A,1,,,,,,,,,,,,,99.9,99.9,99.9,3*08
$GNGSA,A,1,,,,,,,,,,,,,99.9,99.9,99.9,5*0E
$GPGSV,1,1,04,16,00,000,24,18,00,000,20,31,00,000,27,195,00,000,27,1*55
$BDGSV,1,1,03,22,00,000,23,27,00,000,30,30,00,000,30,,,,,1*41
$GLGSV,1,1,03,72,00,000,20,76,00,000,23,77,00,000,25,,,,,1*4B
$GAGSV,1,1,01,03,00,000,25,,,,,,,,,,,,,7*46
$IRGSV,1,1,01,07,00,000,00,,,,,,,,,,,,,1*5E
$POCNR,0,0,0,0,0,0,0,0,0,0*40
$GNRMC,,V,,,,,,,,,,N,V*37
$GNGGA,,,,,,0,00,99.9,,,,,,*6F
$GNRMC,,V,,,,,,,,,,N,V*37
$GNGGA,,,,,,0,00,99.9,,,,,,*6F
$GNRMC,,V,,,,,,,,,,N,V*37
$GNGGA,,,,,,0,00,99.9,,,,,,*6F
$GNRMC,,V,,,,,,,,,,N,V*37
$GNGGA,,,,,,0,00,99.9,,,,,,*6F
$GNRMC,,V,,,,,,,,,,N,V*37
$GNGGA,,,,,,0,00,99.9,,,,,,*6F
$GNRMC,,V,,,,,,,,,,N,V*37
$GNGGA,051815.54,,,,,0,00,99.9,,,,,,*48
$GNRMC,051815.54,V,,,,,,,260123,,,N,V*14
$GNGGA,051816.54,,,,,0,00,99.9,,,,,,*4B
$GNRMC,051816.54,V,,,,,,,260123,,,N,V*17
$GNGGA,051817.54,,,,,0,00,99.9,,,,,,*4A
$GNRMC,051817.54,V,,,,,,,260123,,,N,V*16
$GNGGA,051818.54,,,,,0,00,99.9,,,,,,*45
$GNRMC,051818.54,V,,,,,,,260123,,,N,V*19
$POCLK,0.000,0.000,0.000,0.000,0*47
$
$GNGGA,051819.54,,,,,0,00,99.9,,,,,,*44
$GNGSA,A,1,,,,,,,,,,,,,99.9,99.9,99.9,1*0A
$GNGSA,A,1,,,,,,,,,,,,,99.9,99.9,99.9,4*0F
$GNGSA,A,1,,,,,,,,,,,,,99.9,99.9,99.9,2*09
$GNGSA,A,1,,,,,,,,,,,,,99.9,99.9,99.9,3*08
$GNGSA,A,1,,,,,,,,,,,,,99.9,99.9,99.9,5*0E
$GPGSV,3,1,11,16,00,000,23,18,00,000,23,26,00,000,28,31,35,103,18,1*69
$GPGSV,3,2,11,195,00,000,26,02,01,039,00,03,05,242,00,08,27,205,00,1*5D
$GPGSV,3,3,11,09,17,317,00,194,69,051,00,199,53,169,00,,,,,1*50
$GPGSV,1,1,04,18,00,000,16,26,00,000,00,31,35,103,00,195,00,000,16,8*5F
$BDGSV,1,1,04,22,00,000,21,27,00,000,26,30,00,000,32,36,00,000,30,1*77
$BDGSV,1,1,03,22,00,000,27,27,00,000,29,30,00,000,00,,,,,3*4C
$BDGSV,1,1,03,22,00,000,21,27,00,000,27,30,00,000,32,,,,,2*44
$GLGSV,2,1,06,75,00,000,19,81,00,000,26,71,00,000,22,77,26,304,00,1*7F
$GLGSV,2,2,06,86,40,104,00,87,14,164,00,,,,,,,,,1*78
$GAGSV,3,1,10,03,00,000,24,02,62,346,00,07,17,317,00,08,55,268,00,7*72
$GAGSV,3,2,10,10,06,042,00,11,17,066,00,25,31,052,00,30,31,273,00,7*71
$GAGSV,3,3,10,34,06,164,00,36,23,116,00,,,,,,,,,7*72
$GAGSV,1,1,01,03,00,000,24,,,,,,,,,,,,,1*41
$IRGSV,1,1,01,07,00,000,28,,,,,,,,,,,,,1*54
$POCNR,2479,1564,2719,2787,0,2650,2252,2362,2408,0*44
$GNRMC,051819.54,V,,,,,,,260123,,,N,V*18
$GNGGA,051820.54,,,,,0,00,99.9,,,,,,*4E
$GNRMC,051820.54,V,,,,,,,260123,,,N,V*12
$GNGGA,051821.54,,,,,0,00,99.9,,,,,,*4F
$GNRMC,051821.54,V,,,,,,,260123,,,N,V*13
$GNGGA,051822.54,,,,,0,00,99.9,,,,,,*4C
$GNRMC,051822.54,V,,,,,,,260123,,,N,V*10
$GNGGA,051823.54,,,,,0,00,99.9,,,,,,*4D
$GNRMC,051823.54,V,,,,,,,260123,,,N,V*11
$GNGGA,051824.54,,,,,0,00,99.9,,,,,,*4A
$GNRMC,051824.54,V,,,,,,,260123,,,N,V*16
$GNGGA,051825.54,,,,,0,00,99.9,,,,,,*4B
$GNRMC,051825.54,V,,,,,,,260123,,,N,V*17
$GNGGA,051826.54,,,,,0,00,99.9,,,,,,*48
$GNRMC,051826.54,V,,,,,,,260123,,,N,V*14
$GNGGA,051827.54,,,,,0,00,99.9,,,,,,*49
$GNRMC,051827.54,V,,,,,,,260123,,,N,V*15
$GNGGA,051828.54,,,,,0,00,99.9,,,,,,*46
$GNRMC,051828.54,V,,,,,,,260123,,,N,V*1A
$POCLK,0.000,0.000,0.000,0.000,0*47
$
$GNGGA,051829.54,,,,,0,00,99.9,,,,,,*47
$GNGSA,A,1,,,,,,,,,,,,,99.9,99.9,99.9,1*0A
$GNGSA,A,1,,,,,,,,,,,,,99.9,99.9,99.9,4*0F
$GNGSA,A,1,,,,,,,,,,,,,99.9,99.9,99.9,2*09
$GNGSA,A,1,,,,,,,,,,,,,99.9,99.9,99.9,3*08
$GNGSA,A,1,,,,,,,,,,,,,99.9,99.9,99.9,5*0E
$GPGSV,3,1,12,16,00,000,19,18,00,000,20,26,00,000,29,31,35,103,24,1*6E
$GPGSV,3,2,12,195,00,000,23,56,00,000,00,02,01,039,00,03,05,242,00,1*52
$GPGSV,3,3,12,08,27,205,00,09,17,317,00,194,69,051,00,199,53,169,00,1*69
$GPGSV,2,1,05,16,00,000,00,18,00,000,16,26,00,000,30,31,35,103,00,8*63
$GPGSV,2,2,05,195,00,000,22,,,,,,,,,,,,,8*65
$BDGSV,1,1,04,22,00,000,24,27,00,000,21,30,00,000,31,36,00,000,30,1*76
$BDGSV,1,1,04,22,00,000,24,27,00,000,30,30,00,000,00,36,00,000,00,3*75
$BDGSV,1,1,04,22,00,000,21,27,00,000,26,30,00,000,32,36,00,000,26,2*73
$GLGSV,2,1,06,75,00,000,20,81,00,000,24,71,00,000,24,77,26,304,00,1*71
$GLGSV,2,2,06,86,40,104,00,87,14,164,00,,,,,,,,,1*78
$GAGSV,3,1,10,03,00,000,21,02,62,346,00,07,17,317,00,08,55,268,00,7*77
$GAGSV,3,2,10,10,06,042,00,11,17,066,00,25,31,052,00,30,31,273,00,7*71
$GAGSV,3,3,10,34,06,164,00,36,23,116,00,,,,,,,,,7*72
$GAGSV,1,1,01,03,00,000,28,,,,,,,,,,,,,1*4D
$IRGSV,1,1,01,07,00,000,29,,,,,,,,,,,,,1*55
$POCNR,2417,2278,2654,2734,0,2632,2278,2092,2849,0*4C
$GNRMC,051829.54,V,,,,,,,260123,,,N,V*1B
$GNGGA,051830.54,,,,,0,00,99.9,,,,,,*4F
$GNRMC,051830.54,V,,,,,,,260123,,,N,V*13
$GNGGA,051831.54,,,,,0,00,99.9,,,,,,*4E
$GNRMC,051831.54,V,,,,,,,260123,,,N,V*12
$GNGGA,051832.54,,,,,0,00,99.9,,,,,,*4D
$GNRMC,051832.54,V,,,,,,,260123,,,N,V*11
$GNGGA,051833.54,,,,,0,00,99.9,,,,,,*4C
$GNRMC,051833.54,V,,,,,,,260123,,,N,V*10
$GNGGA,051834.54,,,,,0,00,99.9,,,,,,*4B
$GNRMC,051834.54,V,,,,,,,260123,,,N,V*17
$GNGGA,051835.54,,,,,0,00,99.9,,,,,,*4A
$GNRMC,051835.54,V,,,,,,,260123,,,N,V*16
$GNGGA,051836.54,,,,,0,00,99.9,,,,,,*49
$GNRMC,051836.54,V,,,,,,,260123,,,N,V*15
$GNGGA,051837.54,,,,,0,00,99.9,,,,,,*48
$GNRMC,051837.54,V,,,,,,,260123,,,N,V*14
$GNGGA,051838.54,,,,,0,00,99.9,,,,,,*47
$GNRMC,051838.54,V,,,,,,,260123,,,N,V*1B
$POCLK,0.000,0.000,0.000,0.000,0*47
 
$
$GNGGA,051839.54,,,,,0,00,99.9,,,,,,*46
$GNGSA,A,1,,,,,,,,,,,,,99.9,99.9,99.9,1*0A
$GNGSA,A,1,,,,,,,,,,,,,99.9,99.9,99.9,4*0F
$GNGSA,A,1,,,,,,,,,,,,,99.9,99.9,99.9,2*09
$GNGSA,A,1,,,,,,,,,,,,,99.9,99.9,99.9,3*08
$GNGSA,A,1,,,,,,,,,,,,,99.9,99.9,99.9,5*0E
$GPGSV,3,1,11,16,00,000,26,18,00,000,15,26,00,000,23,31,35,103,27,1*6E
$GPGSV,3,2,11,195,00,000,21,02,01,039,00,03,05,242,00,08,27,205,00,1*5A
$GPGSV,3,3,11,09,17,317,00,194,69,051,00,199,53,169,00,,,,,1*50
$GPGSV,2,1,05,16,00,000,00,18,00,000,16,26,00,000,31,31,35,103,00,8*62
$GPGSV,2,2,05,195,00,000,26,,,,,,,,,,,,,8*61
$BDGSV,1,1,04,22,00,000,25,27,00,000,27,30,50,135,31,36,00,000,30,1*73
$BDGSV,1,1,04,22,00,000,23,27,00,000,30,30,50,135,00,36,00,000,00,3*70
$BDGSV,1,1,04,22,00,000,19,27,00,000,24,30,50,135,28,36,00,000,25,2*70
$GLGSV,2,1,06,75,00,000,22,81,00,000,23,71,00,000,29,77,26,305,00,1*78
$GLGSV,2,2,06,86,40,104,00,87,15,164,00,,,,,,,,,1*79
$GAGSV,3,1,10,03,00,000,17,02,62,346,00,07,17,317,00,08,55,268,00,7*72
$GAGSV,3,2,10,10,06,042,00,11,17,066,00,25,31,052,00,30,31,274,00,7*76
$GAGSV,3,3,10,34,06,164,00,36,23,116,00,,,,,,,,,7*72
$GAGSV,1,1,01,03,00,000,31,,,,,,,,,,,,,1*45
$IRGSV,1,1,01,07,00,000,31,,,,,,,,,,,,,1*5C
$POCNR,2428,2411,2828,2636,0,2400,2457,1709,3103,0*47
$GNRMC,051839.54,V,,,,,,,260123,,,N,V*1A
$GNGGA,051840.54,,,,,0,00,99.9,,,,,,*48
$GNRMC,051840.54,V,,,,,,,260123,,,N,V*14
$GNGGA,051841.54,,,,,0,00,99.9,,,,,,*49
$GNRMC,051841.54,V,,,,,,,260123,,,N,V*15
$GNGGA,051842.54,,,,,0,00,99.9,,,,,,*4A
$GNRMC,051842.54,V,,,,,,,260123,,,N,V*16
$GNGGA,051843.54,,,,,0,00,99.9,,,,,,*4B
$GNRMC,051843.54,V,,,,,,,260123,,,N,V*17
$GNGGA,051844.54,,,,,0,00,99.9,,,,,,*4C
$GNRMC,051844.54,V,,,,,,,260123,,,N,V*10
$GNGGA,051845.54,,,,,0,00,99.9,,,,,,*4D
$GNRMC,051845.54,V,,,,,,,260123,,,N,V*11
$GNGGA,051846.54,,,,,0,00,99.9,,,,,,*4E
$GNRMC,051846.54,V,,,,,,,260123,,,N,V*12
$GNGGA,051847.54,,,,,0,00,99.9,,,,,,*4F
$GNRMC,051847.54,V,,,,,,,260123,,,N,V*13
$GNGGA,051848.54,,,,,0,00,99.9,,,,,,*40
$GNRMC,051848.54,V,,,,,,,260123,,,N,V*1C
$POCLK,0.000,0.000,0.000,0.000,0*47
$
$GNGGA,051849.54,,,,,0,00,99.9,,,,,,*41
$GNGSA,A,1,,,,,,,,,,,,,99.9,99.9,99.9,1*0A
$GNGSA,A,1,,,,,,,,,,,,,99.9,99.9,99.9,4*0F
$GNGSA,A,1,,,,,,,,,,,,,99.9,99.9,99.9,2*09
$GNGSA,A,1,,,,,,,,,,,,,99.9,99.9,99.9,3*08
$GNGSA,A,1,,,,,,,,,,,,,99.9,99.9,99.9,5*0E
$GPGSV,3,1,11,16,00,000,25,18,00,000,16,26,49,037,26,31,35,103,30,1*64
$GPGSV,3,2,11,195,00,000,30,02,01,039,00,03,05,242,00,08,27,205,00,1*5A
$GPGSV,3,3,11,09,17,317,00,194,69,051,00,199,53,169,00,,,,,1*50
$GPGSV,2,1,05,16,00,000,00,18,00,000,17,26,49,037,28,31,35,103,00,8*62
$GPGSV,2,2,05,195,00,000,25,,,,,,,,,,,,,8*62
$BDGSV,2,1,06,01,00,000,00,16,00,000,00,22,00,000,23,27,34,062,27,1*74
$BDGSV,2,2,06,30,50,134,30,36,56,335,27,,,,,,,,,1*76
$BDGSV,1,1,04,22,00,000,22,27,34,062,28,30,50,134,00,36,56,335,00,3*7C
$BDGSV,1,1,04,22,00,000,21,27,34,062,24,30,50,134,27,36,56,335,23,2*76
$GLGSV,2,1,06,75,00,000,19,81,00,000,28,71,00,000,31,77,26,305,00,1*72
$GLGSV,2,2,06,86,40,103,00,87,15,164,00,,,,,,,,,1*7E
$GAGSV,3,1,10,03,40,186,23,02,62,346,00,07,18,317,00,08,55,268,00,7*71
$GAGSV,3,2,10,10,06,042,00,11,17,066,00,25,31,052,00,30,31,274,00,7*76
$GAGSV,3,3,10,34,07,164,00,36,23,116,00,,,,,,,,,7*73
$GAGSV,1,1,01,03,40,186,31,,,,,,,,,,,,,1*4E
$IRGSV,1,1,01,07,00,000,31,,,,,,,,,,,,,1*5C
$POCNR,2775,2326,2649,2466,0,2366,2613,2315,3072,0*49
$GNRMC,051849.54,V,,,,,,,260123,,,N,V*1D
$GNGGA,051850.54,,,,,0,00,99.9,,,,,,*49
$GNRMC,051850.54,V,,,,,,,260123,,,N,V*15
$GNGGA,051851.54,,,,,0,00,99.9,,,,,,*48
$GNRMC,051851.54,V,,,,,,,260123,,,N,V*14
$GNGGA,051852.54,,,,,0,00,99.9,,,,,,*4B
$GNRMC,051852.54,V,,,,,,,260123,,,N,V*17
$GNGGA,051853.54,,,,,0,00,99.9,,,,,,*4A
$GNRMC,051853.54,V,,,,,,,260123,,,N,V*16
$GNGGA,051854.54,,,,,0,00,99.9,,,,,,*4D
$GNRMC,051854.54,V,,,,,,,260123,,,N,V*11
$GNGGA,051855.54,,,,,0,00,99.9,,,,,,*4C
$GNRMC,051855.54,V,,,,,,,260123,,,N,V*10
$GNGGA,051856.54,,,,,0,00,99.9,,,,,,*4F
$GNRMC,051856.54,V,,,,,,,260123,,,N,V*13
$GNGGA,051857.54,,,,,0,00,99.9,,,,,,*4E
$GNRMC,051857.54,V,,,,,,,260123,,,N,V*12
$GNGGA,051858.54,,,,,0,00,99.9,,,,,,*41
$GNRMC,051858.54,V,,,,,,,260123,,,N,V*1D
$POCLK,0.000,0.000,0.000,0.000,0*47
$
$GNGGA,051859.54,,,,,0,00,99.9,,,,,,*40
$GNGSA,A,1,,,,,,,,,,,,,99.9,99.9,99.9,1*0A
$GNGSA,A,1,,,,,,,,,,,,,99.9,99.9,99.9,4*0F
$GNGSA,A,1,,,,,,,,,,,,,99.9,99.9,99.9,2*09
$GNGSA,A,1,,,,,,,,,,,,,99.9,99.9,99.9,3*08
$GNGSA,A,1,,,,,,,,,,,,,99.9,99.9,99.9,5*0E
$GPGSV,3,1,12,16,00,000,27,18,00,000,20,26,49,037,28,31,35,103,30,1*6E
$GPGSV,3,2,12,195,00,000,27,56,00,000,00,02,01,039,00,03,05,242,00,1*56
$GPGSV,3,3,12,08,27,205,00,09,17,317,00,194,69,051,00,199,53,169,00,1*69
$GPGSV,1,1,04,18,00,000,23,26,49,037,24,31,35,103,00,195,00,000,29,8*5A
$BDGSV,1,1,04,22,00,000,16,27,34,062,31,30,51,134,30,36,56,335,18,1*7A
$BDGSV,1,1,04,22,00,000,20,27,34,062,27,30,51,134,27,36,56,335,00,3*75
$BDGSV,1,1,04,22,00,000,21,27,34,062,26,30,51,134,27,36,56,335,20,2*76
$GLGSV,2,1,06,75,00,000,21,81,00,000,32,71,00,000,19,77,26,305,00,1*78
$GLGSV,2,2,06,86,40,103,00,87,15,164,00,,,,,,,,,1*7E
$GAGSV,3,1,10,03,40,186,24,02,62,346,00,07,18,317,00,08,55,268,00,7*76
$GAGSV,3,2,10,10,06,042,00,11,17,066,00,25,31,052,00,30,31,274,00,7*76
$GAGSV,3,3,10,34,07,164,00,36,23,116,00,,,,,,,,,7*73
$GAGSV,1,1,01,03,40,186,31,,,,,,,,,,,,,1*4E
$IRGSV,1,1,01,07,00,000,32,,,,,,,,,,,,,1*5F
$POCNR,2804,2505,2374,2512,0,2346,2408,2412,3079,0*4F
$GNRMC,051859.54,V,,,,,,,260123,,,N,V*1C
$GNGGA,051900.54,,,,,0,00,99.9,,,,,,*4D
$GNRMC,051900.54,V,,,,,,,260123,,,N,V*11
$GNGGA,051901.54,,,,,0,00,99.9,,,,,,*4C
$GNRMC,051901.54,V,,,,,,,260123,,,N,V*10
$GNGGA,051902.54,,,,,0,00,99.9,,,,,,*4F
$GNRMC,051902.54,V,,,,,,,260123,,,N,V*13
$GNGGA,051903.54,,,,,0,00,99.9,,,,,,*4E
$GNRMC,051903.54,V,,,,,,,260123,,,N,V*12
$GNGGA,051904.54,,,,,0,00,99.9,,,,,,*49
$GNRMC,051904.54,V,,,,,,,260123,,,N,V*15
$GNGGA,051905.54,,,,,0,00,99.9,,,,,,*48
$GNRMC,051905.54,V,,,,,,,260123,,,N,V*14
$GNGGA,051906.54,,,,,0,00,99.9,,,,,,*4B
$GNRMC,051906.54,V,,,,,,,260123,,,N,V*17
$GNGGA,051907.54,,,,,0,00,99.9,,,,,,*4A
$GNRMC,051907.54,V,,,,,,,260123,,,N,V*16
$GNGGA,051908.54,,,,,0,00,99.9,,,,,,*45
$GNRMC,051908.54,V,,,,,,,260123,,,N,V*19
$POCLK,0.000,0.000,0.000,0.000,0*47
$
$GNGGA,051909.54,,,,,0,00,99.9,,,,,,*44
$GNGSA,A,1,,,,,,,,,,,,,99.9,99.9,99.9,1*0A
$GNGSA,A,1,,,,,,,,,,,,,99.9,99.9,99.9,4*0F
$GNGSA,A,1,,,,,,,,,,,,,99.9,99.9,99.9,2*09
$GNGSA,A,1,,,,,,,,,,,,,99.9,99.9,99.9,3*08
$GNGSA,A,1,,,,,,,,,,,,,99.9,99.9,99.9,5*0E
$GPGSV,3,1,12,04,00,000,00,16,00,000,28,18,00,000,15,26,49,037,29,1*67
$GPGSV,3,2,12,31,35,103,29,195,00,000,19,02,01,039,00,03,05,242,00,1*55
$GPGSV,3,3,12,08,27,205,00,09,17,317,00,194,69,051,00,199,53,169,00,1*69
$GPGSV,2,1,05,16,00,000,00,18,00,000,07,26,49,037,14,31,35,103,00,8*6C
$GPGSV,2,2,05,195,00,000,26,,,,,,,,,,,,,8*61
$BDGSV,1,1,04,22,00,000,30,27,34,062,27,30,51,134,19,36,56,335,16,1*7C
$BDGSV,1,1,04,22,00,000,26,27,34,062,19,30,51,134,27,36,56,335,00,3*7E
$BDGSV,1,1,04,22,00,000,30,27,34,062,21,30,51,134,18,36,56,335,13,2*7D
$GLGSV,2,1,07,75,00,000,20,85,27,047,34,71,00,000,25,76,47,003,00,1*70
$GLGSV,2,2,07,77,26,305,00,86,40,103,00,87,15,164,00,,,,,1*4D
$GAGSV,3,1,10,03,40,186,25,02,62,347,00,07,18,317,00,08,55,268,00,7*76
$GAGSV,3,2,10,10,06,042,00,11,17,066,00,25,31,052,00,30,31,274,00,7*76
$GAGSV,3,3,10,34,07,164,00,36,23,116,00,,,,,,,,,7*73
$GAGSV,1,1,01,03,40,186,27,,,,,,,,,,,,,1*49
$IRGSV,1,1,01,07,00,000,32,,,,,,,,,,,,,1*5F
$POCNR,2614,1550,2299,2389,0,2060,2627,2467,2722,0*47
$GNRMC,051909.54,V,,,,,,,260123,,,N,V*18
$GNGGA,051910.54,,,,,0,00,99.9,,,,,,*4C
$GNRMC,051910.54,V,,,,,,,260123,,,N,V*10
$GNGGA,051911.54,,,,,0,00,99.9,,,,,,*4D
$GNRMC,051911.54,V,,,,,,,260123,,,N,V*11
$GNGGA,051912.54,,,,,0,00,99.9,,,,,,*4E
$GNRMC,051912.54,V,,,,,,,260123,,,N,V*12
$GNGGA,051913.54,,,,,0,00,99.9,,,,,,*4F
$GNRMC,051913.54,V,,,,,,,260123,,,N,V*13
$GNGGA,051914.54,,,,,0,00,99.9,,,,,,*48
$GNRMC,051914.54,V,,,,,,,260123,,,N,V*14
$GNGGA,051915.54,,,,,0,00,99.9,,,,,,*49
$GNRMC,051915.54,V,,,,,,,260123,,,N,V*15
$GNGGA,051916.54,,,,,0,00,99.9,,,,,,*4A
$GNRMC,051916.54,V,,,,,,,260123,,,N,V*16
$GNGGA,051917.54,,,,,0,00,99.9,,,,,,*4B
$GNRMC,051917.54,V,,,,,,,260123,,,N,V*17
$GNGGA,051918.54,,,,,0,00,99.9,,,,,,*44
$GNRMC,051918.54,V,,,,,,,260123,,,N,V*18
$POCLK,0.000,0.000,0.000,0.000,0*47
  
$
$GNGGA,051919.54,,,,,0,00,99.9,,,,,,*45
$GNGSA,A,1,,,,,,,,,,,,,99.9,99.9,99.9,1*0A
$GNGSA,A,1,,,,,,,,,,,,,99.9,99.9,99.9,4*0F
$GNGSA,A,1,,,,,,,,,,,,,99.9,99.9,99.9,2*09
$GNGSA,A,1,,,,,,,,,,,,,99.9,99.9,99.9,3*08
$GNGSA,A,1,,,,,,,,,,,,,99.9,99.9,99.9,5*0E
$GPGSV,3,1,11,04,00,000,27,16,64,325,26,18,00,000,14,26,49,037,31,1*61
$GPGSV,3,2,11,31,35,103,27,195,39,140,25,02,01,039,00,08,27,205,00,1*50
$GPGSV,3,3,11,09,17,317,00,194,69,051,00,199,53,169,00,,,,,1*50
$GPGSV,2,1,06,04,00,000,20,16,64,325,00,18,00,000,19,26,49,037,10,8*62
$GPGSV,2,2,06,31,35,103,00,195,39,140,26,,,,,,,,,8*5B
$BDGSV,1,1,04,22,00,000,29,27,34,062,30,30,51,134,21,36,56,335,28,1*74
$BDGSV,1,1,04,22,00,000,26,27,34,062,19,30,51,134,27,36,56,335,00,3*7E
$BDGSV,1,1,04,22,00,000,31,27,34,062,22,30,51,134,24,36,56,335,23,2*73
$GLGSV,2,1,07,75,00,000,23,85,27,047,36,71,00,000,22,76,47,003,00,1*76
$GLGSV,2,2,07,77,26,305,00,86,40,103,00,87,15,164,00,,,,,1*4D
$GAGSV,3,1,10,03,40,186,22,02,62,347,00,07,18,317,00,08,55,268,00,7*71
$GAGSV,3,2,10,10,06,042,00,11,17,066,00,25,31,052,00,30,31,274,00,7*76
$GAGSV,3,3,10,34,07,164,00,36,23,116,00,,,,,,,,,7*73
$GAGSV,1,1,01,03,40,186,28,,,,,,,,,,,,,1*46
$IRGSV,1,1,01,07,00,000,31,,,,,,,,,,,,,1*5C
$POCNR,2779,1883,2693,2396,0,2503,2711,2186,2791,0*48
$GNRMC,051919.54,V,,,,,,,260123,,,N,V*19
$GNGGA,051920.54,,,,,0,00,99.9,,,,,,*4F
$GNRMC,051920.54,V,,,,,,,260123,,,N,V*13
$GNGGA,051921.54,,,,,0,00,99.9,,,,,,*4E
$GNRMC,051921.54,V,,,,,,,260123,,,N,V*12
$GNGGA,051922.54,,,,,0,00,99.9,,,,,,*4D
$GNRMC,051922.54,V,,,,,,,260123,,,N,V*11
$GNGGA,051923.54,,,,,0,00,99.9,,,,,,*4C
$GNRMC,051923.54,V,,,,,,,260123,,,N,V*10
$GNGGA,051924.54,,,,,0,00,99.9,,,,,,*4B
$GNRMC,051924.54,V,,,,,,,260123,,,N,V*17
$GNGGA,051925.54,,,,,0,00,99.9,,,,,,*4A
$GNRMC,051925.54,V,,,,,,,260123,,,N,V*16
$GNGGA,051926.54,,,,,0,00,99.9,,,,,,*49
$GNRMC,051926.54,V,,,,,,,260123,,,N,V*15
$GNGGA,051926.50,3057.8179865,N,12105.6842782,E,1,10,1.4,23.763,M,0.000,M,,*76
$GNRMC,051926.50,A,3057.8179865,N,12105.6842782,E,49.52,10.75,260123,,,A,V*34
$GNGGA,051927.30,3057.8283589,N,12105.6865930,E,1,10,1.4,24.850,M,0.000,M,,*72
$GNRMC,051927.30,A,3057.8283589,N,12105.6865930,E,49.31,10.76,260123,,,A,V*3E
$POCLK,0.792,0.000,0.000,0.000,0*4B
 
$
$GNGGA,051928.50,3057.8445350,N,12105.6905759,E,1,10,1.4,27.475,M,0.000,M,,*7B
$GNGSA,A,3,16,26,31,195,,,,,,,,,3.0,1.4,2.7,1*0E
$GNGSA,A,3,22,27,30,36,,,,,,,,,3.0,1.4,2.7,4*34
$GNGSA,A,3,85,,,,,,,,,,,,3.0,1.4,2.7,2*3C
$GNGSA,A,3,03,,,,,,,,,,,,3.0,1.4,2.7,3*33
$GNGSA,A,3,,,,,,,,,,,,,3.0,1.4,2.7,5*36
$GPGSV,3,1,11,04,00,000,19,16,64,325,27,18,00,000,19,26,49,037,29,1*69
$GPGSV,3,2,11,31,35,103,28,195,39,140,25,02,01,039,00,08,28,205,00,1*50
$GPGSV,3,3,11,09,17,317,00,194,69,051,00,199,53,169,00,,,,,1*50
$GPGSV,2,1,06,04,00,000,19,16,64,325,00,18,00,000,08,26,49,037,22,8*69
$GPGSV,2,2,06,31,35,103,00,195,39,140,27,,,,,,,,,8*5A
$BDGSV,1,1,04,22,27,269,30,27,34,062,27,30,51,134,19,36,56,336,31,1*72
$BDGSV,1,1,04,22,27,269,25,27,34,062,19,30,51,134,26,36,56,336,26,3*73
$BDGSV,1,1,04,22,27,269,31,27,34,062,23,30,51,134,23,36,56,336,26,2*7B
$GLGSV,2,1,07,75,00,000,30,85,27,047,36,71,00,000,28,76,47,003,00,1*7E
$GLGSV,2,2,07,77,26,305,00,86,41,103,00,87,15,164,00,,,,,1*4C
$GAGSV,3,1,10,03,40,186,20,02,62,347,00,07,18,317,00,08,55,268,00,7*73
$GAGSV,3,2,10,10,06,042,00,11,17,066,00,25,31,052,00,30,31,274,00,7*76
$GAGSV,3,3,10,34,07,164,00,36,23,116,00,,,,,,,,,7*73
$GAGSV,1,1,01,03,40,186,29,,,,,,,,,,,,,1*47
$IRGSV,1,1,01,07,00,000,31,,,,,,,,,,,,,1*5C
$POCNR,2707,1897,2676,2405,0,2553,3118,2036,2875,0*46
$GNRMC,051928.50,A,3057.8445350,N,12105.6905759,E,49.15,10.86,260123,,,A,V*36
$GNGGA,051929.70,3057.8607959,N,12105.6941047,E,1,10,1.4,27.818,M,0.000,M,,*70
$GNRMC,051929.70,A,3057.8607959,N,12105.6941047,E,47.73,10.49,260123,,,A,V*37
$GNGGA,051930.90,3057.8764389,N,12105.6973251,E,1,10,1.4,28.389,M,0.000,M,,*7D
$GNRMC,051930.90,A,3057.8764389,N,12105.6973251,E,47.97,10.51,260123,,,A,V*35
$GNGGA,051932.00,3057.8908417,N,12105.7004459,E,1,10,1.4,29.424,M,0.000,M,,*75
$GNRMC,051932.00,A,3057.8908417,N,12105.7004459,E,48.23,10.46,260123,,,A,V*3A
$GNGGA,051933.00,3057.9042432,N,12105.7030998,E,1,10,1.4,29.508,M,0.000,M,,*7D
$GNRMC,051933.00,A,3057.9042432,N,12105.7030998,E,47.91,10.17,260123,,,A,V*3F
$GNGGA,051934.00,3057.9170564,N,12105.7058365,E,1,10,1.4,31.081,M,0.000,M,,*73
$GNRMC,051934.00,A,3057.9170564,N,12105.7058365,E,47.89,10.43,260123,,,A,V*34
$GNGGA,051935.00,3057.9302577,N,12105.7086847,E,1,10,1.4,31.298,M,0.000,M,,*75
$GNRMC,051935.00,A,3057.9302577,N,12105.7086847,E,47.94,10.39,260123,,,A,V*39
$GNGGA,051936.00,3057.9435803,N,12105.7116383,E,1,10,1.4,31.549,M,0.000,M,,*7B
$GNRMC,051936.00,A,3057.9435803,N,12105.7116383,E,46.76,10.64,260123,,,A,V*39
$GNGGA,051937.00,3057.9565681,N,12105.7144604,E,1,10,1.4,31.800,M,0.000,M,,*77
$GNRMC,051937.00,A,3057.9565681,N,12105.7144604,E,45.52,11.11,260123,,,A,V*33
$GNGGA,051938.00,3057.9692618,N,12105.7173711,E,1,10,1.4,31.975,M,0.000,M,,*71
$GNRMC,051938.00,A,3057.9692618,N,12105.7173711,E,44.41,10.83,260123,,,A,V*3F
$POCLK,0.793,0.792,0.000,0.000,0*46
$
$GNGGA,051939.00,3057.9812369,N,12105.7202269,E,1,10,1.4,32.426,M,0.000,M,,*72
$GNGSA,A,3,16,26,31,195,,,,,,,,,3.0,1.4,2.7,1*0E
$GNGSA,A,3,22,27,30,36,,,,,,,,,3.0,1.4,2.7,4*34
$GNGSA,A,3,85,,,,,,,,,,,,3.0,1.4,2.7,2*3C
$GNGSA,A,3,03,,,,,,,,,,,,3.0,1.4,2.7,3*33
$GNGSA,A,3,,,,,,,,,,,,,3.0,1.4,2.7,5*36
$GPGSV,3,1,12,04,00,000,21,08,00,000,00,16,64,325,23,18,00,000,19,1*6B
$GPGSV,3,2,12,26,49,037,30,31,35,103,29,194,00,000,21,195,39,140,23,1*69
$GPGSV,3,3,12,56,00,000,32,02,01,039,00,09,17,317,00,199,53,169,00,1*5F
$GPGSV,2,1,06,04,00,000,25,16,64,325,00,18,00,000,16,26,49,037,19,8*61
$GPGSV,2,2,06,31,35,103,00,195,39,140,27,,,,,,,,,8*5A
$BDGSV,1,1,04,22,27,269,27,27,34,062,24,30,51,133,23,36,56,336,31,1*79
$BDGSV,1,1,04,22,27,269,26,27,34,062,19,30,51,133,27,36,56,336,28,3*78
$BDGSV,1,1,04,22,27,269,30,27,34,062,19,30,51,133,25,36,56,336,26,2*72
$GLGSV,2,1,07,75,00,000,24,85,27,047,36,71,00,000,23,76,47,004,00,1*77
$GLGSV,2,2,07,77,26,305,00,86,40,102,00,87,15,164,00,,,,,1*4C
$GAGSV,3,1,10,03,40,186,21,02,62,348,00,07,18,317,00,08,56,268,00,7*7E
$GAGSV,3,2,10,10,05,041,00,11,16,066,00,25,30,052,00,30,31,274,00,7*76
$GAGSV,3,3,10,34,07,164,00,36,23,116,00,,,,,,,,,7*73
$GAGSV,1,1,01,03,40,186,29,,,,,,,,,,,,,1*47
$IRGSV,1,1,01,07,00,000,30,,,,,,,,,,,,,1*5D
$POCNR,2617,2191,2614,2505,0,2506,2753,2079,2941,0*4A
$GNRMC,051939.00,A,3057.9812369,N,12105.7202269,E,43.43,11.10,260123,,,A,V*3A
$GNGGA,051940.00,3057.9927500,N,12105.7229489,E,1,10,1.4,32.235,M,0.000,M,,*77
$GNRMC,051940.00,A,3057.9927500,N,12105.7229489,E,42.84,12.15,260123,,,A,V*37
$GNGGA,051941.00,3058.0038867,N,12105.7259857,E,1,10,1.4,32.633,M,0.000,M,,*71
$GNRMC,051941.00,A,3058.0038867,N,12105.7259857,E,42.39,12.03,260123,,,A,V*32
$GNGGA,051942.00,3058.0153455,N,12105.7288116,E,1,10,1.4,33.357,M,0.000,M,,*75
$GNRMC,051942.00,A,3058.0153455,N,12105.7288116,E,43.02,12.17,260123,,,A,V*3C
$GNGGA,051943.00,3058.0273021,N,12105.7317861,E,1,09,1.5,33.372,M,0.000,M,,*72
$GNRMC,051943.00,A,3058.0273021,N,12105.7317861,E,43.57,11.90,260123,,,A,V*39
$GNGGA,051944.00,3058.0391764,N,12105.7348878,E,1,10,1.4,33.596,M,0.000,M,,*79
$GNRMC,051944.00,A,3058.0391764,N,12105.7348878,E,43.12,12.37,260123,,,A,V*38
$GNGGA,051945.00,3058.0508606,N,12105.7379259,E,1,10,1.4,33.554,M,0.000,M,,*7E
$GNRMC,051945.00,A,3058.0508606,N,12105.7379259,E,42.64,13.15,260123,,,A,V*30
$GNGGA,051946.00,3058.0624740,N,12105.7410158,E,1,10,1.4,33.918,M,0.000,M,,*7D
$GNRMC,051946.00,A,3058.0624740,N,12105.7410158,E,43.71,12.87,260123,,,A,V*38
$GNGGA,051947.00,3058.0743718,N,12105.7441194,E,1,10,1.4,34.173,M,0.000,M,,*77
$GNRMC,051947.00,A,3058.0743718,N,12105.7441194,E,43.91,12.69,260123,,,A,V*3E
$GNGGA,051948.00,3058.0862336,N,12105.7472208,E,1,10,1.4,34.094,M,0.000,M,,*72
$GNRMC,051948.00,A,3058.0862336,N,12105.7472208,E,44.49,12.36,260123,,,A,V*3B
$POCLK,0.795,0.794,0.000,0.000,0*46
$
$GNGGA,051949.00,3058.0983025,N,12105.7503383,E,1,10,1.4,33.866,M,0.000,M,,*7B
$GNGSA,A,3,16,26,31,195,,,,,,,,,3.0,1.4,2.7,1*0E
$GNGSA,A,3,22,27,30,36,,,,,,,,,3.0,1.4,2.7,4*34
$GNGSA,A,3,85,,,,,,,,,,,,3.0,1.4,2.7,2*3C
$GNGSA,A,3,03,,,,,,,,,,,,3.0,1.4,2.7,3*33
$GNGSA,A,3,,,,,,,,,,,,,3.0,1.4,2.7,5*36
$GPGSV,3,1,11,04,00,000,19,08,00,000,18,16,64,325,24,26,49,038,24,1*68
$GPGSV,3,2,11,31,34,103,31,194,00,000,23,195,39,140,26,56,00,000,31,1*6A
$GPGSV,3,3,11,02,01,039,00,09,17,317,00,199,53,169,00,,,,,1*6E
$GPGSV,2,1,06,04,00,000,21,16,64,325,00,18,00,000,19,26,49,038,22,8*6D
$GPGSV,2,2,06,31,34,103,00,195,39,140,27,,,,,,,,,8*5B
$BDGSV,1,1,04,22,27,269,26,27,34,062,26,30,51,133,28,36,56,336,24,1*75
$BDGSV,1,1,04,22,27,269,26,27,34,062,25,30,51,133,25,36,56,336,28,3*75
$BDGSV,1,1,04,22,27,269,23,27,34,062,24,30,51,133,25,36,56,336,22,2*7A
$GLGSV,2,1,07,75,00,000,22,85,27,047,32,71,00,000,20,76,47,004,00,1*76
$GLGSV,2,2,07,77,26,305,00,86,40,102,00,87,15,164,00,,,,,1*4C
$GAGSV,3,1,10,03,40,186,25,02,62,348,00,07,18,317,00,08,56,268,00,7*7A
$GAGSV,3,2,10,10,05,041,00,11,16,066,00,25,30,052,00,30,31,274,00,7*76
$GAGSV,3,3,10,34,07,164,00,36,23,116,00,,,,,,,,,7*73
$GAGSV,1,1,01,03,40,186,30,,,,,,,,,,,,,1*4F
$IRGSV,1,1,01,07,00,000,30,,,,,,,,,,,,,1*5D
$POCNR,2622,2238,2604,2613,0,2360,2477,2505,2992,0*4A
$GNRMC,051949.00,A,3058.0983025,N,12105.7503383,E,44.94,12.66,260123,,,A,V*35
$GNGGA,051950.00,3058.1108662,N,12105.7536926,E,1,10,1.4,33.704,M,0.000,M,,*74
$GNRMC,051950.00,A,3058.1108662,N,12105.7536926,E,44.93,13.46,260123,,,A,V*35
$GNGGA,051951.00,3058.1232279,N,12105.7572229,E,1,10,1.4,33.478,M,0.000,M,,*7D
$GNRMC,051951.00,A,3058.1232279,N,12105.7572229,E,44.85,14.04,260123,,,A,V*32
$GNGGA,051952.00,3058.1352728,N,12105.7607064,E,1,10,1.4,33.304,M,0.000,M,,*7E
$GNRMC,051952.00,A,3058.1352728,N,12105.7607064,E,43.77,13.53,260123,,,A,V*32
$GNGGA,051953.00,3058.1469655,N,12105.7639857,E,1,10,1.4,33.049,M,0.000,M,,*74
$GNRMC,051953.00,A,3058.1469655,N,12105.7639857,E,43.07,13.97,260123,,,A,V*3D
$GNGGA,051954.00,3058.1586939,N,12105.7672998,E,1,10,1.4,32.716,M,0.000,M,,*77
$GNRMC,051954.00,A,3058.1586939,N,12105.7672998,E,42.31,14.02,260123,,,A,V*3D
$GNGGA,051955.00,3058.1698204,N,12105.7707407,E,1,10,1.4,32.571,M,0.000,M,,*74
$GNRMC,051955.00,A,3058.1698204,N,12105.7707407,E,42.65,15.46,260123,,,A,V*3D
$GNGGA,051956.00,3058.1810843,N,12105.7743040,E,1,10,1.4,32.577,M,0.000,M,,*71
$GNRMC,051956.00,A,3058.1810843,N,12105.7743040,E,42.57,15.14,260123,,,A,V*38
$GNGGA,051957.00,3058.1924504,N,12105.7778225,E,1,10,1.4,32.543,M,0.000,M,,*76
$GNRMC,051957.00,A,3058.1924504,N,12105.7778225,E,43.12,15.08,260123,,,A,V*35
$GNGGA,051958.00,3058.2040813,N,12105.7815183,E,1,10,1.4,32.453,M,0.000,M,,*71
$GNRMC,051958.00,A,3058.2040813,N,12105.7815183,E,43.47,15.28,260123,,,A,V*30
$POCLK,0.797,0.796,0.000,0.000,0*46
 
$
$GNGGA,051959.00,3058.2157774,N,12105.7854226,E,1,10,1.4,31.547,M,0.000,M,,*77
$GNGSA,A,3,16,26,31,195,,,,,,,,,3.0,1.4,2.7,1*0E
$GNGSA,A,3,22,27,30,36,,,,,,,,,3.0,1.4,2.7,4*34
$GNGSA,A,3,85,,,,,,,,,,,,3.0,1.4,2.7,2*3C
$GNGSA,A,3,03,,,,,,,,,,,,3.0,1.4,2.7,3*33
$GNGSA,A,3,,,,,,,,,,,,,3.0,1.4,2.7,5*36
$GPGSV,3,1,12,04,00,000,18,08,00,000,14,16,64,325,22,18,00,000,19,1*65
$GPGSV,3,2,12,26,49,038,27,31,34,103,36,194,00,000,25,195,39,140,28,1*60
$GPGSV,3,3,12,56,00,000,31,02,01,039,00,09,17,317,00,199,53,169,00,1*5C
$GPGSV,2,1,06,04,00,000,22,16,64,325,00,18,00,000,29,26,49,038,27,8*68
$GPGSV,2,2,06,31,34,103,00,195,39,140,27,,,,,,,,,8*5B
$BDGSV,1,1,04,22,27,269,16,27,34,062,29,30,51,133,29,36,56,336,21,1*7D
$BDGSV,1,1,04,22,27,269,22,27,34,062,26,30,51,133,22,36,56,336,28,3*75
$BDGSV,1,1,04,22,27,269,15,27,34,062,24,30,51,133,29,36,56,336,18,2*7A
$GLGSV,2,1,05,75,00,000,28,85,27,047,28,71,00,000,24,77,26,305,00,1*75
$GLGSV,2,2,05,87,15,164,00,,,,,,,,,,,,,1*45
$GAGSV,3,1,10,03,40,186,26,02,62,348,00,07,18,317,00,08,56,268,00,7*79
$GAGSV,3,2,10,10,05,041,00,11,16,066,00,25,30,052,00,30,32,274,00,7*75
$GAGSV,3,3,10,34,07,164,00,36,23,116,00,,,,,,,,,7*73
$GAGSV,1,1,01,03,40,186,32,,,,,,,,,,,,,1*4D
$IRGSV,1,1,01,07,00,000,29,,,,,,,,,,,,,1*55
$POCNR,2883,2615,2370,2466,0,2165,2574,2554,3161,0*46
$GNRMC,051959.00,A,3058.2157774,N,12105.7854226,E,43.93,14.38,260123,,,A,V*38
$GNGGA,052000.00,3058.2272915,N,12105.7893646,E,1,10,1.4,30.760,M,0.000,M,,*73
$GNRMC,052000.00,A,3058.2272915,N,12105.7893646,E,43.27,15.07,260123,,,A,V*38
$GNGGA,052001.00,3058.2388373,N,12105.7930067,E,1,10,1.4,30.548,M,0.000,M,,*79
$GNRMC,052001.00,A,3058.2388373,N,12105.7930067,E,43.27,15.31,260123,,,A,V*3F
$GNGGA,052002.00,3058.2506623,N,12105.7968830,E,1,10,1.4,30.328,M,0.000,M,,*7D
$GNRMC,052002.00,A,3058.2506623,N,12105.7968830,E,43.88,16.40,260123,,,A,V*3B
$GNGGA,052003.00,3058.2624904,N,12105.8009323,E,1,10,1.4,30.116,M,0.000,M,,*72
$GNRMC,052003.00,A,3058.2624904,N,12105.8009323,E,44.21,16.44,260123,,,A,V*3B
$GNGGA,052004.00,3058.2744333,N,12105.8050841,E,1,11,1.3,29.866,M,0.000,M,,*7F
$GNRMC,052004.00,A,3058.2744333,N,12105.8050841,E,44.72,16.63,260123,,,A,V*35
$GNGGA,052005.00,3058.2863220,N,12105.8091425,E,1,11,1.3,29.637,M,0.000,M,,*7E
$GNRMC,052005.00,A,3058.2863220,N,12105.8091425,E,45.13,16.36,260123,,,A,V*38
$GNGGA,052006.00,3058.2982187,N,12105.8132628,E,1,11,1.3,29.352,M,0.000,M,,*7C
$GNRMC,052006.00,A,3058.2982187,N,12105.8132628,E,44.97,16.81,260123,,,A,V*3D
$GNGGA,052007.00,3058.3102449,N,12105.8174667,E,1,11,1.3,28.993,M,0.000,M,,*74
$GNRMC,052007.00,A,3058.3102449,N,12105.8174667,E,44.97,17.17,260123,,,A,V*3D
$GNGGA,052008.00,3058.3221151,N,12105.8218954,E,1,11,1.3,27.846,M,0.000,M,,*75
$GNRMC,052008.00,A,3058.3221151,N,12105.8218954,E,44.80,17.65,260123,,,A,V*39
$POCLK,0.801,0.799,0.000,0.000,0*49
$
$GNGGA,052009.00,3058.3344502,N,12105.8264688,E,1,10,1.4,27.512,M,0.000,M,,*7B
$GNGSA,A,3,16,26,31,195,,,,,,,,,3.0,1.4,2.7,1*0E
$GNGSA,A,3,22,27,30,36,,,,,,,,,3.0,1.4,2.7,4*34
$GNGSA,A,3,67,,,,,,,,,,,,3.0,1.4,2.7,2*30
$GNGSA,A,3,03,,,,,,,,,,,,3.0,1.4,2.7,3*33
$GNGSA,A,3,,,,,,,,,,,,,3.0,1.4,2.7,5*36
$GPGSV,3,1,12,04,00,000,22,08,00,000,18,16,64,326,28,18,00,000,18,1*68
$GPGSV,3,2,12,26,49,038,19,31,34,103,35,194,00,000,21,195,39,140,24,1*66
$GPGSV,3,3,12,56,00,000,26,02,01,039,00,09,17,317,00,199,53,169,00,1*5A
$GPGSV,2,1,06,04,00,000,19,16,64,326,00,18,00,000,28,26,49,038,27,8*62
$GPGSV,2,2,06,31,34,103,00,195,39,140,23,,,,,,,,,8*5F
$BDGSV,2,1,07,21,00,000,21,22,27,269,22,27,34,062,27,30,51,133,30,1*7F
$BDGSV,2,2,07,36,56,336,28,19,21,213,00,46,45,064,00,,,,,1*42
$BDGSV,2,1,05,21,00,000,00,22,27,269,23,27,34,062,27,30,51,133,22,3*7E
$BDGSV,2,2,05,36,56,336,27,,,,,,,,,,,,,3*47
$BDGSV,2,1,05,21,00,000,00,22,27,269,21,27,34,062,22,30,51,133,30,2*7B
$BDGSV,2,2,05,36,56,336,25,,,,,,,,,,,,,2*44
$GLGSV,2,1,06,75,00,000,26,85,27,047,14,67,25,312,22,77,26,305,00,1*71
$GLGSV,2,2,06,86,40,102,00,87,15,164,00,,,,,,,,,1*7F
$GAGSV,3,1,10,03,40,186,26,02,62,348,00,07,18,317,00,08,56,267,00,7*76
$GAGSV,3,2,10,10,05,041,00,11,16,065,00,25,30,052,00,30,32,274,00,7*76
$GAGSV,3,3,10,34,07,164,00,36,23,116,00,,,,,,,,,7*73
$GAGSV,1,1,01,03,40,186,32,,,,,,,,,,,,,1*4D
$IRGSV,1,1,01,07,00,000,29,,,,,,,,,,,,,1*55
$POCNR,2712,2437,2680,2476,0,2466,2349,2569,3204,0*48
$GNRMC,052009.00,A,3058.3344502,N,12105.8264688,E,44.99,17.51,260123,,,A,V*32
$GNGGA,052010.00,3058.3477005,N,12105.8312810,E,1,10,1.4,27.096,M,0.000,M,,*70
$GNRMC,052010.00,A,3058.3477005,N,12105.8312810,E,45.09,17.49,260123,,,A,V*31
$GNGGA,052011.00,3058.3587945,N,12105.8353953,E,1,11,1.3,26.741,M,0.000,M,,*7B
$GNRMC,052011.00,A,3058.3587945,N,12105.8353953,E,44.89,17.91,260123,,,A,V*3C
$GNGGA,052012.00,3058.3701698,N,12105.8397250,E,1,11,1.3,26.407,M,0.000,M,,*7A
$GNRMC,052012.00,A,3058.3701698,N,12105.8397250,E,45.06,18.60,260123,,,A,V*3B
$GNGGA,052013.00,3058.3821301,N,12105.8443550,E,1,11,1.3,26.102,M,0.000,M,,*7A
$GNRMC,052013.00,A,3058.3821301,N,12105.8443550,E,45.06,18.77,260123,,,A,V*3D
$GNGGA,052014.00,3058.3938740,N,12105.8489459,E,1,11,1.3,25.800,M,0.000,M,,*73
$GNRMC,052014.00,A,3058.3938740,N,12105.8489459,E,45.42,18.75,260123,,,A,V*3E
$GNGGA,052015.00,3058.4056160,N,12105.8536189,E,1,11,1.3,24.830,M,0.000,M,,*7F
$GNRMC,052015.00,A,3058.4056160,N,12105.8536189,E,45.45,19.45,260123,,,A,V*35
$GNGGA,052016.00,3058.4172990,N,12105.8584222,E,1,11,1.3,23.892,M,0.000,M,,*78
$GNRMC,052016.00,A,3058.4172990,N,12105.8584222,E,45.45,19.48,260123,,,A,V*30
$GNGGA,052017.00,3058.4291675,N,12105.8637840,E,1,11,1.3,23.331,M,0.000,M,,*74
$GNRMC,052017.00,A,3058.4291675,N,12105.8637840,E,45.97,19.81,260123,,,A,V*34
$GNGGA,052018.00,3058.4416014,N,12105.8697224,E,1,11,1.3,22.995,M,0.000,M,,*74
$GNRMC,052018.00,A,3058.4416014,N,12105.8697224,E,46.25,19.64,260123,,,A,V*30
$POCLK,0.804,0.803,0.000,0.000,0*40
 
$
$GNGGA,052019.00,3058.4538835,N,12105.8749751,E,1,11,1.3,23.069,M,0.000,M,,*7D
$GNGSA,A,3,16,26,31,195,,,,,,,,,3.0,1.3,2.7,1*09
$GNGSA,A,3,22,27,30,36,,,,,,,,,3.0,1.3,2.7,4*33
$GNGSA,A,3,85,67,,,,,,,,,,,3.0,1.3,2.7,2*3A
$GNGSA,A,3,03,,,,,,,,,,,,3.0,1.3,2.7,3*34
$GNGSA,A,3,,,,,,,,,,,,,3.0,1.3,2.7,5*31
$GPGSV,3,1,12,04,00,000,23,08,00,000,16,16,64,326,30,18,00,000,22,1*67
$GPGSV,3,2,12,26,49,038,24,31,34,103,33,194,00,000,13,195,39,140,18,1*60
$GPGSV,3,3,12,56,00,000,31,02,01,039,00,09,17,317,00,199,53,169,00,1*5C
$GPGSV,2,1,06,04,00,000,24,16,64,326,00,18,00,000,22,26,49,038,28,8*69
$GPGSV,2,2,06,31,34,103,00,195,39,140,24,,,,,,,,,8*58
$BDGSV,2,1,07,21,00,000,27,22,27,269,20,27,34,061,26,30,51,133,33,1*7A
$BDGSV,2,2,07,36,56,336,33,19,21,213,00,46,45,065,00,,,,,1*49
$BDGSV,2,1,05,21,00,000,00,22,27,269,28,27,34,061,25,30,51,133,18,3*7D
$BDGSV,2,2,05,36,56,336,30,,,,,,,,,,,,,3*41
$BDGSV,1,1,04,22,27,269,19,27,34,061,25,30,51,133,32,36,56,336,29,2*7C
$GLGSV,2,1,06,75,00,000,22,85,27,047,20,67,25,312,19,77,26,305,00,1*7A
$GLGSV,2,2,06,86,40,102,00,87,15,164,00,,,,,,,,,1*7F
$GAGSV,3,1,10,03,40,186,21,02,62,348,00,07,18,317,00,08,56,267,00,7*71
$GAGSV,3,2,10,10,05,041,00,11,16,065,00,25,30,052,00,30,32,274,00,7*76
$GAGSV,3,3,10,34,07,164,00,36,23,116,00,,,,,,,,,7*73
$GAGSV,1,1,01,03,40,186,31,,,,,,,,,,,,,1*4E
$IRGSV,1,1,01,07,00,000,24,,,,,,,,,,,,,1*58
$POCNR,2752,2416,2997,2517,0,2637,2365,2054,3092,0*4E
$GNRMC,052019.00,A,3058.4538835,N,12105.8749751,E,46.92,20.36,260123,,,A,V*33
$GNGGA,052020.00,3058.4661722,N,12105.8803613,E,1,11,1.3,23.484,M,0.000,M,,*70
$GNRMC,052020.00,A,3058.4661722,N,12105.8803613,E,46.90,20.57,260123,,,A,V*3C
$GNGGA,052021.00,3058.4784639,N,12105.8859731,E,1,11,1.3,23.454,M,0.000,M,,*73
$GNRMC,052021.00,A,3058.4784639,N,12105.8859731,E,46.79,20.48,260123,,,A,V*3B
$GNGGA,052022.00,3058.4904697,N,12105.8911855,E,1,11,1.3,23.180,M,0.000,M,,*7E
$GNRMC,052022.00,A,3058.4904697,N,12105.8911855,E,47.08,20.47,260123,,,A,V*32
$GNGGA,052023.00,3058.5025471,N,12105.8966424,E,1,11,1.3,22.161,M,0.000,M,,*7A
$GNRMC,052023.00,A,3058.5025471,N,12105.8966424,E,47.76,20.84,260123,,,A,V*3E
$GNGGA,052024.00,3058.5152420,N,12105.9026398,E,1,11,1.3,21.294,M,0.000,M,,*7E
$GNRMC,052024.00,A,3058.5152420,N,12105.9026398,E,47.86,21.41,260123,,,A,V*37
$GNGGA,052025.00,3058.5279123,N,12105.9088638,E,1,11,1.3,21.105,M,0.000,M,,*73
$GNRMC,052025.00,A,3058.5279123,N,12105.9088638,E,48.23,21.67,260123,,,A,V*35
$GNGGA,052026.00,3058.5404035,N,12105.9146600,E,1,11,1.3,20.406,M,0.000,M,,*75
$GNRMC,052026.00,A,3058.5404035,N,12105.9146600,E,47.08,21.63,260123,,,A,V*36
$GNGGA,052027.00,3058.5525200,N,12105.9201520,E,1,11,1.3,20.074,M,0.000,M,,*72
$GNRMC,052027.00,A,3058.5525200,N,12105.9201520,E,46.65,21.50,260123,,,A,V*3A
$GNGGA,052028.00,3058.5646447,N,12105.9256282,E,1,11,1.3,19.334,M,0.000,M,,*7E
$GNRMC,052028.00,A,3058.5646447,N,12105.9256282,E,47.10,22.22,260123,,,A,V*3E
$POCLK,0.806,0.805,0.000,0.000,0*44
 
$
$GNGGA,052029.00,3058.5768663,N,12105.9313585,E,1,11,1.3,18.785,M,0.000,M,,*79
$GNGSA,A,3,16,26,31,195,,,,,,,,,3.0,1.3,2.7,1*09
$GNGSA,A,3,22,27,30,36,,,,,,,,,3.0,1.3,2.7,4*33
$GNGSA,A,3,85,67,,,,,,,,,,,3.0,1.3,2.7,2*3A
$GNGSA,A,3,03,,,,,,,,,,,,3.0,1.3,2.7,3*34
$GNGSA,A,3,,,,,,,,,,,,,3.0,1.3,2.7,5*31
$GPGSV,3,1,12,04,00,000,18,08,00,000,16,16,64,326,25,18,00,000,27,1*6E
$GPGSV,3,2,12,26,49,038,29,31,34,103,31,194,00,000,22,195,39,140,26,1*60
$GPGSV,3,3,12,56,00,000,00,02,01,038,00,09,17,317,00,199,53,169,00,1*5F
$GPGSV,2,1,06,04,00,000,21,16,64,326,00,18,00,000,16,26,49,038,27,8*64
$GPGSV,2,2,06,31,34,103,00,195,39,140,20,,,,,,,,,8*5C
$BDGSV,2,1,07,21,00,000,16,22,27,269,26,27,34,061,26,30,51,133,30,1*7D
$BDGSV,2,2,07,36,56,336,34,19,21,213,00,46,45,065,00,,,,,1*4E
$BDGSV,2,1,05,21,00,000,00,22,27,269,30,27,34,061,27,30,51,133,18,3*76
$BDGSV,2,2,05,36,56,336,26,,,,,,,,,,,,,3*46
$BDGSV,2,1,05,21,00,000,00,22,27,269,20,27,34,061,23,30,51,133,33,2*7B
$BDGSV,2,2,05,36,56,336,30,,,,,,,,,,,,,2*40
$GLGSV,2,1,06,75,00,000,23,85,27,047,22,67,25,312,18,77,27,306,00,1*7A
$GLGSV,2,2,06,86,41,102,00,87,16,164,00,,,,,,,,,1*7D
$GAGSV,3,1,10,03,40,186,26,02,62,348,00,07,18,317,00,08,55,267,00,7*75
$GAGSV,3,2,10,10,05,041,00,11,16,065,00,25,30,052,00,30,32,274,00,7*76
$GAGSV,3,3,10,34,07,164,00,36,23,115,00,,,,,,,,,7*70
$GAGSV,1,1,01,03,40,186,29,,,,,,,,,,,,,1*47
$IRGSV,1,1,01,07,00,000,24,,,,,,,,,,,,,1*58
$POCNR,2823,2118,2933,2537,0,2665,2431,2590,2921,0*4C
$GNRMC,052029.00,A,3058.5768663,N,12105.9313585,E,47.44,22.41,260123,,,A,V*32
$GNGGA,052030.00,3058.5891061,N,12105.9372695,E,1,11,1.3,18.481,M,0.000,M,,*7E
$GNRMC,052030.00,A,3058.5891061,N,12105.9372695,E,47.25,22.53,260123,,,A,V*36
$GNGGA,052031.00,3058.6011476,N,12105.9432006,E,1,11,1.3,18.336,M,0.000,M,,*7A
$GNRMC,052031.00,A,3058.6011476,N,12105.9432006,E,47.01,22.48,260123,,,A,V*35
$GNGGA,052032.00,3058.6130787,N,12105.9489906,E,1,10,1.4,18.359,M,0.000,M,,*70
$GNRMC,052032.00,A,3058.6130787,N,12105.9489906,E,46.97,23.15,260123,,,A,V*37
$GNGGA,052033.00,3058.6250606,N,12105.9548574,E,1,09,1.4,18.390,M,0.000,M,,*74
$GNRMC,052033.00,A,3058.6250606,N,12105.9548574,E,46.90,23.19,260123,,,A,V*35
$GNGGA,052034.00,3058.6374625,N,12105.9608518,E,1,09,1.4,18.423,M,0.000,M,,*77
$GNRMC,052034.00,A,3058.6374625,N,12105.9608518,E,48.81,22.73,260123,,,A,V*3A
$GNGGA,052035.00,3058.6484992,N,12105.9672122,E,1,07,8.6,18.439,M,0.000,M,,*73
$GNRMC,052035.00,A,3058.6484992,N,12105.9672122,E,45.17,26.32,260123,,,A,V*33
$GNGGA,052036.00,3058.6600093,N,12105.9734610,E,1,10,2.6,18.471,M,0.000,M,,*73
$GNRMC,052036.00,A,3058.6600093,N,12105.9734610,E,46.51,24.64,260123,,,A,V*33
$GNGGA,052037.00,3058.6723526,N,12105.9802354,E,1,11,1.3,18.506,M,0.000,M,,*70
$GNRMC,052037.00,A,3058.6723526,N,12105.9802354,E,48.20,24.85,260123,,,A,V*31
$GNGGA,052038.00,3058.6853493,N,12105.9869169,E,1,11,1.3,18.529,M,0.000,M,,*74
$GNRMC,052038.00,A,3058.6853493,N,12105.9869169,E,49.96,24.55,260123,,,A,V*39
$POCLK,0.810,0.808,0.000,0.000,0*4E
$
$GNGGA,052039.00,3058.6983017,N,12105.9933992,E,1,11,1.3,18.548,M,0.000,M,,*74
$GNGSA,A,3,16,26,31,195,,,,,,,,,3.0,1.3,2.7,1*09
$GNGSA,A,3,22,27,30,36,,,,,,,,,3.0,1.3,2.7,4*33
$GNGSA,A,3,85,67,,,,,,,,,,,3.0,1.3,2.7,2*3A
$GNGSA,A,3,03,,,,,,,,,,,,3.0,1.3,2.7,3*34
$GNGSA,A,3,,,,,,,,,,,,,3.0,1.3,2.7,5*31
$GPGSV,3,1,11,04,00,000,23,08,00,000,26,16,64,326,28,18,00,000,19,1*66
$GPGSV,3,2,11,26,49,038,26,31,34,103,27,194,00,000,19,195,39,140,29,1*6C
$GPGSV,3,3,11,02,01,038,00,09,17,317,00,199,53,169,00,,,,,1*6F
$GPGSV,2,1,07,04,00,000,16,08,00,000,00,16,64,326,00,18,00,000,18,8*60
$GPGSV,2,2,07,26,49,038,27,31,34,103,00,195,39,140,00,,,,,8*68
$BDGSV,2,1,07,21,00,000,17,22,27,269,26,27,34,061,30,30,51,133,28,1*72
$BDGSV,2,2,07,36,56,336,32,19,21,213,00,46,45,065,00,,,,,1*48
$BDGSV,1,1,04,22,27,269,29,27,34,061,22,30,51,133,20,36,56,336,23,3*70
$BDGSV,1,1,04,22,27,269,24,27,34,061,25,30,51,133,30,36,56,336,29,2*70
$GLGSV,2,1,06,75,00,000,23,85,27,047,28,67,25,312,28,77,27,306,00,1*73
$GLGSV,2,2,06,86,41,102,00,87,16,164,00,,,,,,,,,1*7D
$GAGSV,3,1,10,03,40,186,25,02,62,348,00,07,18,317,00,08,55,267,00,7*76
$GAGSV,3,2,10,10,05,041,00,11,16,065,00,25,30,052,00,30,32,274,00,7*76
$GAGSV,3,3,10,34,07,164,00,36,23,115,00,,,,,,,,,7*70
$GAGSV,1,1,01,03,40,186,29,,,,,,,,,,,,,1*47
$IRGSV,1,1,01,07,00,000,27,,,,,,,,,,,,,1*5B
$POCNR,2744,1529,2898,2347,0,2724,2795,2487,2903,0*48
$GNRMC,052039.00,A,3058.6983017,N,12105.9933992,E,50.33,24.57,260123,,,A,V*3B
$GNGGA,052040.00,3058.7111125,N,12106.0002976,E,1,11,1.3,18.586,M,0.000,M,,*71
$GNRMC,052040.00,A,3058.7111125,N,12106.0002976,E,51.91,25.80,260123,,,A,V*3E
$GNGGA,052041.00,3058.7238867,N,12106.0073905,E,1,11,1.3,18.700,M,0.000,M,,*79
$GNRMC,052041.00,A,3058.7238867,N,12106.0073905,E,51.20,25.76,260123,,,A,V*39
$GNGGA,052042.00,3058.7367488,N,12106.0145887,E,1,11,1.3,18.741,M,0.000,M,,*76
$GNRMC,052042.00,A,3058.7367488,N,12106.0145887,E,50.80,24.97,260123,,,A,V*36
$GNGGA,052043.00,3058.7493962,N,12106.0217038,E,1,11,1.3,18.776,M,0.000,M,,*7E
$GNRMC,052043.00,A,3058.7493962,N,12106.0217038,E,50.09,26.21,260123,,,A,V*34
$GNGGA,052044.00,3058.7616297,N,12106.0287912,E,1,11,1.3,18.790,M,0.000,M,,*77
$GNRMC,052044.00,A,3058.7616297,N,12106.0287912,E,49.30,25.25,260123,,,A,V*30
$GNGGA,052045.00,3058.7741440,N,12106.0359162,E,1,11,1.3,18.799,M,0.000,M,,*7D
$GNRMC,052045.00,A,3058.7741440,N,12106.0359162,E,49.50,26.08,260123,,,A,V*39
$GNGGA,052046.00,3058.7863376,N,12106.0427780,E,1,11,1.3,18.829,M,0.000,M,,*73
$GNRMC,052046.00,A,3058.7863376,N,12106.0427780,E,48.72,26.52,260123,,,A,V*3D
$GNGGA,052047.00,3058.7985712,N,12106.0494981,E,1,11,1.3,18.865,M,0.000,M,,*72
$GNRMC,052047.00,A,3058.7985712,N,12106.0494981,E,48.35,27.02,260123,,,A,V*33
$GNGGA,052048.00,3058.8104886,N,12106.0562378,E,1,11,1.3,18.894,M,0.000,M,,*7B
$GNRMC,052048.00,A,3058.8104886,N,12106.0562378,E,47.42,27.26,260123,,,A,V*3D
$POCLK,0.811,0.810,0.000,0.000,0*46
$
$GNGGA,052049.00,3058.8221940,N,12106.0629113,E,1,11,1.3,18.917,M,0.000,M,,*7C
$GNGSA,A,3,16,26,31,195,,,,,,,,,3.0,1.3,2.7,1*09
$GNGSA,A,3,22,27,30,36,,,,,,,,,3.0,1.3,2.7,4*33
$GNGSA,A,3,85,67,,,,,,,,,,,3.0,1.3,2.7,2*3A
$GNGSA,A,3,03,,,,,,,,,,,,3.0,1.3,2.7,3*34
$GNGSA,A,3,,,,,,,,,,,,,3.0,1.3,2.7,5*31
$GPGSV,3,1,11,04,00,000,29,08,00,000,22,16,64,326,26,18,00,000,15,1*6A
$GPGSV,3,2,11,26,48,038,28,31,34,103,25,194,00,000,17,195,39,140,29,1*6F
$GPGSV,3,3,11,02,01,038,00,09,17,317,00,199,53,169,00,,,,,1*6F
$GPGSV,2,1,07,04,00,000,21,08,00,000,12,16,64,326,00,18,00,000,19,8*66
$GPGSV,2,2,07,26,48,038,27,31,34,103,00,195,39,140,21,,,,,8*6A
$BDGSV,2,1,07,21,00,000,19,22,27,269,28,27,34,061,30,30,51,133,30,1*7B
$BDGSV,2,2,07,36,56,336,32,19,20,212,00,46,45,065,00,,,,,1*48
$BDGSV,1,1,04,22,27,269,20,27,34,061,17,30,51,133,22,36,56,336,24,3*7A
$BDGSV,1,1,04,22,27,269,26,27,34,061,28,30,51,133,29,36,56,336,30,2*7F
$GLGSV,2,1,06,75,00,000,22,85,27,047,20,67,25,312,29,77,27,306,00,1*7B
$GLGSV,2,2,06,86,41,102,00,87,16,164,00,,,,,,,,,1*7D
$GAGSV,3,1,10,03,40,186,26,02,62,348,00,07,18,317,00,08,55,267,00,7*75
$GAGSV,3,2,10,10,05,041,00,11,16,065,00,25,30,052,00,30,32,274,00,7*76
$GAGSV,3,3,10,34,07,164,00,36,23,115,00,,,,,,,,,7*70
$GAGSV,1,1,01,03,40,186,27,,,,,,,,,,,,,1*49
$IRGSV,1,1,01,07,00,000,28,,,,,,,,,,,,,1*54
$POCNR,2787,2168,3013,2070,0,2826,2474,2610,2697,0*47
$GNRMC,052049.00,A,3058.8221940,N,12106.0629113,E,46.83,27.30,260123,,,A,V*3B
$GNGGA,052050.00,3058.8337197,N,12106.0696809,E,1,11,1.3,18.941,M,0.000,M,,*75
$GNRMC,052050.00,A,3058.8337197,N,12106.0696809,E,46.11,27.64,260123,,,A,V*3B
$GNGGA,052051.00,3058.8451033,N,12106.0765116,E,1,11,1.3,18.957,M,0.000,M,,*71
$GNRMC,052051.00,A,3058.8451033,N,12106.0765116,E,45.60,27.49,260123,,,A,V*32
$GNGGA,052052.00,3058.8564294,N,12106.0831430,E,1,11,1.3,18.960,M,0.000,M,,*71
$GNRMC,052052.00,A,3058.8564294,N,12106.0831430,E,45.03,26.35,260123,,,A,V*39
$GNGGA,052053.00,3058.8675856,N,12106.0897612,E,1,10,1.4,18.972,M,0.000,M,,*7C
$GNRMC,052053.00,A,3058.8675856,N,12106.0897612,E,45.45,27.01,260123,,,A,V*35
$GNGGA,052054.00,3058.8790036,N,12106.0967244,E,1,10,1.4,18.986,M,0.000,M,,*7D
$GNRMC,052054.00,A,3058.8790036,N,12106.0967244,E,46.64,27.51,260123,,,A,V*3A
$GNGGA,052055.00,3058.8903967,N,12106.1037728,E,1,10,1.4,19.006,M,0.000,M,,*77
$GNRMC,052055.00,A,3058.8903967,N,12106.1037728,E,46.43,27.47,260123,,,A,V*32
$GNGGA,052056.00,3058.9019097,N,12106.1110479,E,1,11,1.3,19.023,M,0.000,M,,*73
$GNRMC,052056.00,A,3058.9019097,N,12106.1110479,E,46.94,28.97,260123,,,A,V*3F
$GNGGA,052057.00,3058.9132622,N,12106.1183734,E,1,11,1.3,19.045,M,0.000,M,,*72
$GNRMC,052057.00,A,3058.9132622,N,12106.1183734,E,47.02,29.13,260123,,,A,V*3D
$GNGGA,052058.00,3058.9246198,N,12106.1257878,E,1,11,1.3,19.070,M,0.000,M,,*70
$GNRMC,052058.00,A,3058.9246198,N,12106.1257878,E,47.05,28.97,260123,,,A,V*33
$POCLK,0.815,0.813,0.000,0.000,0*41
$
$POLARIS,1166023018,2*60
 
$GNGGA,052059.00,3058.9358310,N,12106.1332849,E,1,11,1.3,19.100,M,0.000,M,,*7B
$GNGSA,A,3,16,26,31,195,,,,,,,,,2.9,1.3,2.6,1*00
$GNGSA,A,3,22,27,30,36,,,,,,,,,2.9,1.3,2.6,4*3A
$GNGSA,A,3,85,67,,,,,,,,,,,2.9,1.3,2.6,2*33
$GNGSA,A,3,03,,,,,,,,,,,,2.9,1.3,2.6,3*3D
$GNGSA,A,3,,,,,,,,,,,,,2.9,1.3,2.6,5*38
$GPGSV,3,1,11,04,00,000,29,08,00,000,21,16,64,327,19,18,00,000,12,1*63
$GPGSV,3,2,11,26,48,038,26,31,34,104,25,194,00,000,18,195,39,140,26,1*66
$GPGSV,3,3,11,02,01,038,00,09,17,317,00,199,53,169,00,,,,,1*6F
$GPGSV,2,1,07,04,00,000,24,08,00,000,24,16,64,327,00,18,00,000,15,8*6B
$GPGSV,2,2,07,26,48,038,26,31,34,104,00,195,39,140,17,,,,,8*69
$BDGSV,2,1,07,21,00,000,12,22,27,269,31,27,34,061,25,30,51,133,32,1*7E
$BDGSV,2,2,07,36,56,336,29,19,20,212,00,46,45,065,00,,,,,1*42
$BDGSV,1,1,04,22,27,269,21,27,34,061,25,30,51,133,23,36,56,336,18,3*74
$BDGSV,1,1,04,22,27,269,26,27,34,061,27,30,51,133,31,36,56,336,27,2*7F
$GLGSV,2,1,06,75,00,000,26,85,27,047,19,67,25,312,25,77,27,306,00,1*79
$GLGSV,2,2,06,86,41,102,00,87,16,163,00,,,,,,,,,1*7A
$GAGSV,3,1,10,03,39,186,21,02,62,349,00,07,18,317,00,08,55,267,00,7*7D
$GAGSV,3,2,10,10,05,041,00,11,16,065,00,25,30,052,00,30,32,275,00,7*77
$GAGSV,3,3,10,34,07,164,00,36,23,115,00,,,,,,,,,7*70
$GAGSV,1,1,01,03,39,186,31,,,,,,,,,,,,,1*40
$IRGSV,1,1,01,07,00,000,29,,,,,,,,,,,,,1*55
$POCNR,2653,2286,2918,2161,0,2783,2472,2103,3137,0*41
$GNRMC,052059.00,A,3058.9358310,N,12106.1332849,E,46.46,29.27,260123,,,A,V*32
$GNGGA,052100.00,3058.9468382,N,12106.1407100,E,1,11,1.3,19.126,M,0.000,M,,*78
$GNRMC,052100.00,A,3058.9468382,N,12106.1407100,E,45.83,29.87,260123,,,A,V*35
$GNGGA,052101.00,3058.9577626,N,12106.1480945,E,1,11,1.3,19.154,M,0.000,M,,*7E
$GNRMC,052101.00,A,3058.9577626,N,12106.1480945,E,45.66,30.42,260123,,,A,V*3C
$GNGGA,052102.00,3058.9687919,N,12106.1553801,E,1,11,1.3,19.178,M,0.000,M,,*72
$GNRMC,052102.00,A,3058.9687919,N,12106.1553801,E,45.73,29.75,260123,,,A,V*36
$GNGGA,052103.00,3058.9798770,N,12106.1628822,E,1,11,1.3,19.230,M,0.000,M,,*7C
$GNRMC,052103.00,A,3058.9798770,N,12106.1628822,E,45.55,30.54,260123,,,A,V*38
$GNGGA,052104.00,3058.9907165,N,12106.1702835,E,1,11,1.3,19.286,M,0.000,M,,*73
$GNRMC,052104.00,A,3058.9907165,N,12106.1702835,E,44.54,30.67,260123,,,A,V*3A
$GNGGA,052105.00,3059.0012113,N,12106.1777125,E,1,11,1.3,19.321,M,0.000,M,,*70
$GNRMC,052105.00,A,3059.0012113,N,12106.1777125,E,43.96,30.08,260123,,,A,V*35
$GNGGA,052106.00,3059.0116103,N,12106.1849245,E,1,11,1.3,19.326,M,0.000,M,,*77
$GNRMC,052106.00,A,3059.0116103,N,12106.1849245,E,43.54,30.37,260123,,,A,V*37
$GNGGA,052107.00,3059.0219048,N,12106.1922376,E,1,11,1.3,19.348,M,0.000,M,,*71
$GNRMC,052107.00,A,3059.0219048,N,12106.1922376,E,43.25,30.76,260123,,,A,V*3A
$GNGGA,052108.00,3059.0321291,N,12106.1996672,E,1,11,1.3,19.364,M,0.000,M,,*72
$GNRMC,052108.00,A,3059.0321291,N,12106.1996672,E,44.19,31.91,260123,,,A,V*37
$POCLK,0.815,0.815,0.000,0.000,0*47
  
$
$GNGGA,052109.00,3059.0429004,N,12106.2073878,E,1,11,1.3,19.440,M,0.000,M,,*76
$GNGSA,A,3,16,26,31,195,,,,,,,,,2.9,1.3,2.6,1*00
$GNGSA,A,3,22,27,30,36,,,,,,,,,2.9,1.3,2.6,4*3A
$GNGSA,A,3,85,67,,,,,,,,,,,2.9,1.3,2.6,2*33
$GNGSA,A,3,03,,,,,,,,,,,,2.9,1.3,2.6,3*3D
$GNGSA,A,3,,,,,,,,,,,,,2.9,1.3,2.6,5*38
$GPGSV,4,1,13,04,00,000,17,08,00,000,22,16,64,327,20,18,00,000,23,1*60
$GPGSV,4,2,13,26,48,038,27,31,34,104,19,194,00,000,21,195,39,140,22,1*63
$GPGSV,4,3,13,43,00,000,29,56,00,000,29,02,01,038,00,09,17,317,00,1*67
$GPGSV,4,4,13,199,53,169,00,,,,,,,,,,,,,1*6F
$GPGSV,2,1,07,04,00,000,20,08,00,000,27,16,64,327,00,18,00,000,21,8*6B
$GPGSV,2,2,07,26,48,038,26,31,34,104,00,195,39,140,19,,,,,8*67
$BDGSV,2,1,07,21,00,000,10,22,27,269,28,27,34,061,28,30,51,133,30,1*7B
$BDGSV,2,2,07,36,56,337,24,19,20,212,00,46,45,065,00,,,,,1*4E
$BDGSV,1,1,04,22,27,269,23,27,34,061,26,30,51,133,26,36,56,337,23,3*79
$BDGSV,1,1,04,22,27,269,25,27,34,061,31,30,51,133,28,36,56,337,23,2*76
$GLGSV,2,1,06,75,00,000,27,85,27,046,26,67,25,312,25,77,27,306,00,1*75
$GLGSV,2,2,06,86,41,102,00,87,16,163,00,,,,,,,,,1*7A
$GAGSV,3,1,10,03,39,186,24,02,62,349,00,07,18,317,00,08,55,267,00,7*78
$GAGSV,3,2,10,10,05,041,00,11,16,065,00,25,30,052,00,30,32,275,00,7*77
$GAGSV,3,3,10,34,07,164,00,36,23,115,00,,,,,,,,,7*70
$GAGSV,1,1,01,03,39,186,29,,,,,,,,,,,,,1*49
$IRGSV,1,1,01,07,00,000,23,,,,,,,,,,,,,1*5F
$POCNR,2337,2343,2758,2453,0,2697,2688,2398,2883,0*44
$GNRMC,052109.00,A,3059.0429004,N,12106.2073878,E,46.72,32.20,260123,,,A,V*34
$GNGGA,052110.00,3059.0541535,N,12106.2154796,E,1,11,1.3,19.464,M,0.000,M,,*7B
$GNRMC,052110.00,A,3059.0541535,N,12106.2154796,E,48.48,31.00,260123,,,A,V*39
$GNGGA,052111.00,3059.0657319,N,12106.2237105,E,1,11,1.3,19.464,M,0.000,M,,*7C
$GNRMC,052111.00,A,3059.0657319,N,12106.2237105,E,48.41,32.28,260123,,,A,V*3E
$GNGGA,052112.00,3059.0769931,N,12106.2319527,E,1,11,1.3,19.487,M,0.000,M,,*77
$GNRMC,052112.00,A,3059.0769931,N,12106.2319527,E,47.35,31.75,260123,,,A,V*3F
$GNGGA,052113.00,3059.0880155,N,12106.2402226,E,1,11,1.3,19.512,M,0.000,M,,*72
$GNRMC,052113.00,A,3059.0880155,N,12106.2402226,E,46.71,32.76,260123,,,A,V*36
$GNGGA,052114.00,3059.0988112,N,12106.2482889,E,1,11,1.3,19.537,M,0.000,M,,*7F
$GNRMC,052114.00,A,3059.0988112,N,12106.2482889,E,45.42,32.26,260123,,,A,V*3A
$GNGGA,052115.00,3059.1092015,N,12106.2562475,E,1,11,1.3,19.556,M,0.000,M,,*7C
$GNRMC,052115.00,A,3059.1092015,N,12106.2562475,E,44.66,32.97,260123,,,A,V*33
$GNGGA,052116.00,3059.1196060,N,12106.2640203,E,1,11,1.3,19.580,M,0.000,M,,*77
$GNRMC,052116.00,A,3059.1196060,N,12106.2640203,E,44.50,33.60,260123,,,A,V*3F
$GNGGA,052117.00,3059.1298860,N,12106.2717793,E,1,11,1.3,19.662,M,0.000,M,,*73
$GNRMC,052117.00,A,3059.1298860,N,12106.2717793,E,45.12,34.59,260123,,,A,V*3E
$GNGGA,052118.00,3059.1402532,N,12106.2799217,E,1,11,1.3,19.700,M,0.000,M,,*79
$GNRMC,052118.00,A,3059.1402532,N,12106.2799217,E,44.96,34.03,260123,,,A,V*33
$POCLK,0.816,0.816,0.000,0.000,0*47
$
$GNGGA,052119.00,3059.1507125,N,12106.2880141,E,1,11,1.3,19.726,M,0.000,M,,*7D
$GNGSA,A,3,16,26,31,195,,,,,,,,,2.9,1.3,2.6,1*00
$GNGSA,A,3,22,27,30,36,,,,,,,,,2.9,1.3,2.6,4*3A
$GNGSA,A,3,85,67,,,,,,,,,,,2.9,1.3,2.6,2*33
$GNGSA,A,3,03,,,,,,,,,,,,2.9,1.3,2.6,3*3D
$GNGSA,A,3,,,,,,,,,,,,,2.9,1.3,2.6,5*38
$GPGSV,4,1,14,04,00,000,24,08,00,000,20,16,64,327,21,18,00,000,20,1*67
$GPGSV,4,2,14,26,48,038,26,31,34,104,24,194,00,000,20,195,39,140,26,1*6E
$GPGSV,4,3,14,196,00,000,00,43,00,000,32,56,00,000,28,02,01,038,00,1*5F
$GPGSV,4,4,14,09,17,317,00,199,53,169,00,,,,,,,,,1*52
$GPGSV,2,1,07,04,00,000,15,08,00,000,28,16,64,327,00,18,00,000,17,8*67
$GPGSV,2,2,07,26,48,038,26,31,34,104,00,195,39,140,23,,,,,8*6E
$BDGSV,2,1,07,21,00,000,20,22,27,269,20,27,34,061,29,30,51,133,30,1*71
$BDGSV,2,2,07,36,56,337,28,19,20,212,00,46,45,065,00,,,,,1*42
$BDGSV,1,1,04,22,27,269,25,27,34,061,23,30,51,133,22,36,56,337,23,3*7E
$BDGSV,1,1,04,22,27,269,20,27,34,061,30,30,51,133,28,36,56,337,21,2*70
$GLGSV,2,1,06,75,00,000,28,85,27,046,22,67,25,311,23,77,27,306,00,1*7B
$GLGSV,2,2,06,86,41,101,00,87,16,163,00,,,,,,,,,1*79
$GAGSV,3,1,10,03,39,186,25,02,62,349,00,07,18,317,00,08,55,267,00,7*79
$GAGSV,3,2,10,10,05,041,00,11,16,065,00,25,30,053,00,30,32,275,00,7*76
$GAGSV,3,3,10,34,07,164,00,36,23,115,00,,,,,,,,,7*70
$GAGSV,1,1,01,03,39,186,27,,,,,,,,,,,,,1*47
$IRGSV,1,1,02,01,00,000,28,07,00,000,26,,,,,,,,,1*62
$POCNR,2470,2354,2672,2341,0,2485,2560,2505,2717,0*4F
$GNRMC,052119.00,A,3059.1507125,N,12106.2880141,E,45.00,33.65,260123,,,A,V*3A
$GNGGA,052120.00,3059.1613045,N,12106.2957066,E,1,11,1.3,19.745,M,0.000,M,,*7C
$GNRMC,052120.00,A,3059.1613045,N,12106.2957066,E,43.65,31.34,260123,,,A,V*3D
$GNGGA,052121.00,3059.1717549,N,12106.3033553,E,1,11,1.3,19.755,M,0.000,M,,*79
$GNRMC,052121.00,A,3059.1717549,N,12106.3033553,E,43.30,32.11,260123,,,A,V*3D
$GNGGA,052122.00,3059.1820431,N,12106.3111428,E,1,11,1.3,19.777,M,0.000,M,,*73
$GNRMC,052122.00,A,3059.1820431,N,12106.3111428,E,43.96,34.29,260123,,,A,V*36
$GNGGA,052123.00,3059.1923690,N,12106.3191681,E,1,11,1.3,19.804,M,0.000,M,,*7B
$GNRMC,052123.00,A,3059.1923690,N,12106.3191681,E,44.70,34.87,260123,,,A,V*3E
$GNGGA,052124.00,3059.2026076,N,12106.3276527,E,1,11,1.3,19.831,M,0.000,M,,*7E
$GNRMC,052124.00,A,3059.2026076,N,12106.3276527,E,45.00,34.71,260123,,,A,V*32
$GNGGA,052125.00,3059.2129368,N,12106.3362080,E,1,11,1.3,19.855,M,0.000,M,,*73
$GNRMC,052125.00,A,3059.2129368,N,12106.3362080,E,45.58,34.44,260123,,,A,V*36
$GNGGA,052126.00,3059.2231205,N,12106.3449938,E,1,11,1.3,19.876,M,0.000,M,,*75
$GNRMC,052126.00,A,3059.2231205,N,12106.3449938,E,44.79,35.00,260123,,,A,V*32
$GNGGA,052127.00,3059.2331034,N,12106.3535297,E,1,11,1.3,19.893,M,0.000,M,,*7A
$GNRMC,052127.00,A,3059.2331034,N,12106.3535297,E,43.80,35.41,260123,,,A,V*32
$GNGGA,052128.00,3059.2430181,N,12106.3618790,E,1,11,1.3,19.911,M,0.000,M,,*79
$GNRMC,052128.00,A,3059.2430181,N,12106.3618790,E,43.36,35.29,260123,,,A,V*39
$POCLK,0.819,0.818,0.000,0.000,0*46
  
$
$GNGGA,052129.00,3059.2527099,N,12106.3702741,E,1,11,1.3,19.922,M,0.000,M,,*71
$GNGSA,A,3,16,26,31,195,,,,,,,,,2.9,1.3,2.6,1*00
$GNGSA,A,3,22,27,30,36,,,,,,,,,2.9,1.3,2.6,4*3A
$GNGSA,A,3,85,67,,,,,,,,,,,2.9,1.3,2.6,2*33
$GNGSA,A,3,03,,,,,,,,,,,,2.9,1.3,2.6,3*3D
$GNGSA,A,3,,,,,,,,,,,,,2.9,1.3,2.6,5*38
$GPGSV,4,1,14,04,00,000,24,08,00,000,20,16,64,327,18,18,00,000,22,1*6F
$GPGSV,4,2,14,26,48,038,16,31,34,104,26,194,00,000,21,195,39,140,32,1*6B
$GPGSV,4,3,14,196,00,000,25,43,00,000,33,56,00,000,29,02,01,038,00,1*58
$GPGSV,4,4,14,09,17,317,00,199,53,169,00,,,,,,,,,1*52
$GPGSV,2,1,07,04,00,000,24,08,00,000,29,16,64,327,00,18,00,000,11,8*62
$GPGSV,2,2,07,26,48,038,22,31,34,104,00,195,39,140,24,,,,,8*6D
$BDGSV,2,1,07,21,00,000,14,22,27,268,24,27,34,061,28,30,51,133,33,1*71
$BDGSV,2,2,07,36,56,337,25,19,20,212,00,46,45,065,00,,,,,1*4F
$BDGSV,1,1,04,22,27,268,21,27,34,061,27,30,51,133,23,36,56,337,16,3*78
$BDGSV,1,1,04,22,27,268,24,27,34,061,26,30,51,133,30,36,56,337,24,2*7E
$GLGSV,2,1,06,75,00,000,32,85,27,046,23,67,25,311,29,77,27,306,00,1*7B
$GLGSV,2,2,06,86,41,101,00,87,16,163,00,,,,,,,,,1*79
$GAGSV,3,1,10,03,39,186,26,02,62,349,00,07,18,317,00,08,55,266,00,7*7B
$GAGSV,3,2,10,10,05,041,00,11,16,065,00,25,30,053,00,30,32,275,00,7*76
$GAGSV,3,3,10,34,07,164,00,36,23,115,00,,,,,,,,,7*70
$GAGSV,1,1,01,03,39,186,28,,,,,,,,,,,,,1*48
$IRGSV,1,1,02,01,00,000,21,07,00,000,20,,,,,,,,,1*6D
$POCNR,2677,2446,2765,2178,0,2600,2542,2648,2790,0*4B
$GNRMC,052129.00,A,3059.2527099,N,12106.3702741,E,42.24,35.70,260123,,,A,V*3F
$GNGGA,052130.00,3059.2620399,N,12106.3782364,E,1,11,1.3,19.928,M,0.000,M,,*7F
$GNRMC,052130.00,A,3059.2620399,N,12106.3782364,E,41.80,36.12,260123,,,A,V*31
$GNGGA,052131.00,3059.2715696,N,12106.3862946,E,1,12,1.3,19.943,M,0.000,M,,*76
$GNRMC,052131.00,A,3059.2715696,N,12106.3862946,E,42.73,36.63,260123,,,A,V*3F
$GNGGA,052132.00,3059.2813705,N,12106.3949813,E,1,13,1.0,19.950,M,0.000,M,,*7E
$GNRMC,052132.00,A,3059.2813705,N,12106.3949813,E,44.51,36.16,260123,,,A,V*33
$GNGGA,052133.00,3059.2916046,N,12106.4034821,E,1,13,1.0,19.961,M,0.000,M,,*7C
$GNRMC,052133.00,A,3059.2916046,N,12106.4034821,E,45.37,36.30,260123,,,A,V*36
$GNGGA,052134.00,3059.3019278,N,12106.4122789,E,1,13,1.0,19.987,M,0.000,M,,*70
$GNRMC,052134.00,A,3059.3019278,N,12106.4122789,E,46.27,36.51,260123,,,A,V*37
$GNGGA,052135.00,3059.3121348,N,12106.4214757,E,1,13,1.0,20.012,M,0.000,M,,*73
$GNRMC,052135.00,A,3059.3121348,N,12106.4214757,E,47.55,37.45,260123,,,A,V*3B
$GNGGA,052136.00,3059.3227072,N,12106.4307464,E,1,13,1.0,20.028,M,0.000,M,,*76
$GNRMC,052136.00,A,3059.3227072,N,12106.4307464,E,47.68,37.71,260123,,,A,V*3E
$GNGGA,052137.00,3059.3328138,N,12106.4398292,E,1,13,1.0,20.040,M,0.000,M,,*71
$GNRMC,052137.00,A,3059.3328138,N,12106.4398292,E,45.32,37.99,260123,,,A,V*3C
$GNGGA,052138.00,3059.3427433,N,12106.4487410,E,1,13,1.0,20.057,M,0.000,M,,*7B
$GNRMC,052138.00,A,3059.3427433,N,12106.4487410,E,45.07,37.95,260123,,,A,V*3A
$POCLK,0.824,0.822,0.000,0.000,0*41
  
$
$GNGGA,052139.00,3059.3527376,N,12106.4578302,E,1,13,1.0,20.080,M,0.000,M,,*72
$GNGSA,A,3,04,08,16,26,31,195,,,,,,,2.8,1.0,2.6,1*0E
$GNGSA,A,3,22,27,30,36,,,,,,,,,2.8,1.0,2.6,4*38
$GNGSA,A,3,85,67,,,,,,,,,,,2.8,1.0,2.6,2*31
$GNGSA,A,3,03,,,,,,,,,,,,2.8,1.0,2.6,3*3F
$GNGSA,A,3,,,,,,,,,,,,,2.8,1.0,2.6,5*3A
$GPGSV,4,1,14,04,48,294,32,08,29,205,24,16,64,327,20,18,00,000,17,1*6E
$GPGSV,4,2,14,26,48,038,23,31,34,104,23,194,00,000,19,195,39,140,22,1*62
$GPGSV,4,3,14,196,00,000,20,43,00,000,23,56,00,000,04,02,01,038,00,1*53
$GPGSV,4,4,14,09,17,317,00,199,53,169,00,,,,,,,,,1*52
$GPGSV,3,1,09,04,48,294,30,08,29,205,23,16,64,327,00,18,00,000,12,8*6E
$GPGSV,3,2,09,26,48,038,18,31,34,104,00,194,00,000,18,195,39,140,25,8*6F
$GPGSV,3,3,09,196,00,000,14,,,,,,,,,,,,,8*6F
$BDGSV,2,1,07,21,00,000,13,22,27,268,26,27,34,061,27,30,51,132,27,1*7F
$BDGSV,2,2,07,36,56,337,26,19,20,212,00,46,45,065,00,,,,,1*4C
$BDGSV,1,1,04,22,27,268,23,27,34,061,21,30,51,132,18,36,56,337,20,3*70
$BDGSV,1,1,04,22,27,268,28,27,34,061,20,30,51,132,20,36,56,337,23,2*73
$GLGSV,2,1,06,75,00,000,22,85,27,046,32,67,25,311,32,77,27,306,00,1*70
$GLGSV,2,2,06,86,41,101,00,87,16,163,00,,,,,,,,,1*79
$GAGSV,3,1,10,03,39,186,10,02,62,349,00,07,18,317,00,08,55,266,00,7*7E
$GAGSV,3,2,10,10,05,041,00,11,16,065,00,25,30,053,00,30,32,275,00,7*76
$GAGSV,3,3,10,34,07,164,00,36,23,115,00,,,,,,,,,7*70
$GAGSV,1,1,01,03,39,186,17,,,,,,,,,,,,,1*44
$IRGSV,1,1,02,01,00,000,17,07,00,000,17,,,,,,,,,1*6C
$POCNR,2535,2395,2643,2058,0,2268,2906,1049,1653,0*4E
$GNRMC,052139.00,A,3059.3527376,N,12106.4578302,E,46.25,37.94,260123,,,A,V*3B
$GNGGA,052140.00,3059.3630979,N,12106.4670458,E,1,13,1.0,20.122,M,0.000,M,,*76
$GNRMC,052140.00,A,3059.3630979,N,12106.4670458,E,47.37,36.72,260123,,,A,V*3D
$GNGGA,052141.00,3059.3733106,N,12106.4765650,E,1,13,1.0,20.172,M,0.000,M,,*7F
$GNRMC,052141.00,A,3059.3733106,N,12106.4765650,E,47.45,37.77,260123,,,A,V*30
$GNGGA,052142.00,3059.3835017,N,12106.4862210,E,1,13,1.0,20.204,M,0.000,M,,*7E
$GNRMC,052142.00,A,3059.3835017,N,12106.4862210,E,47.01,39.92,260123,,,A,V*36
